[ 
{"id": "1","post_code": "1001","name_fr": "Adrar","wilaya_id": "1","name_ar": "أدرار","latitude": "28.0174403","longitude": "-0.2642497" },
{"id": "2","post_code": "1002","name_fr": "Tamest","wilaya_id": "1","name_ar": "تأماست","latitude": "27.4237441","longitude": "-0.2433797" },
{"id": "3","post_code": "1003","name_fr": "Charouine","wilaya_id": "54","name_ar": "شروين","latitude": "29.0887435","longitude": "-0.6572839" },
{"id": "4","post_code": "1004","name_fr": "Reggane","wilaya_id": "1","name_ar": "رڨان","latitude": "26.7242654","longitude": "0.1657289" },
{"id": "5","post_code": "1005","name_fr": "In Zghmir","wilaya_id": "1","name_ar": "ان زغمير","latitude": "27.0253581","longitude": "-1.4048249" },
{"id": "6","post_code": "1006","name_fr": "Tit","wilaya_id": "1","name_ar": "تــيـــت","latitude": "26.9373292","longitude": "1.4898518" },
{"id": "7","post_code": "1007","name_fr": "Ksar Kaddour","wilaya_id": "54","name_ar": "قصر قدور","latitude": "29.5826335","longitude": "0.3735082" },
{"id": "8","post_code": "1008","name_fr": "Tsabit","wilaya_id": "1","name_ar": "تسابيت","latitude": "28.4007683","longitude": "-0.2357703" },
{"id": "9","post_code": "1009","name_fr": "Timimoun","wilaya_id": "54","name_ar": "تيميمون","latitude": "29.2616911","longitude": "0.2415964" },
{"id": "10","post_code": "1010","name_fr": "Ouled Said","wilaya_id": "54","name_ar": "أولاد سعيد","latitude": "29.4136166","longitude": "0.2448115" },
{"id": "11","post_code": "1011","name_fr": "Zaouiet Kounta","wilaya_id": "1","name_ar": "زاوية كنتة","latitude": "27.227286","longitude": "-0.1899704" },
{"id": "12","post_code": "1012","name_fr": "Aoulef","wilaya_id": "1","name_ar": "أولف","latitude": "26.9723264","longitude": "1.0810031" },
{"id": "13","post_code": "1013","name_fr": "Timokten","wilaya_id": "1","name_ar": "تيمقتن","latitude": "27.0218758","longitude": "1.0143359" },
{"id": "14","post_code": "1014","name_fr": "Tamentit","wilaya_id": "1","name_ar": "تامنطيت","latitude": "27.7688486","longitude": "-0.2690168" },
{"id": "15","post_code": "1015","name_fr": "Fenoughil","wilaya_id": "1","name_ar": "فنوغيل","latitude": "27.5637983","longitude": "-0.2949825" },
{"id": "16","post_code": "1016","name_fr": "Tinerkouk","wilaya_id": "54","name_ar": "زاوية دباغ","latitude": "29.7132101","longitude": "0.7119556" },
{"id": "17","post_code": "1017","name_fr": "Deldoul","wilaya_id": "1","name_ar": "دﻟﺪول","latitude": "28.8143285","longitude": "0.0347144" },
{"id": "18","post_code": "1018","name_fr": "Sali","wilaya_id": "1","name_ar": "سالى","latitude": "26.9609224","longitude": "-0.0276377" },
{"id": "19","post_code": "1019","name_fr": "Akabli","wilaya_id": "1","name_ar": "أقبلي","latitude": "26.7124276","longitude": "1.3709518" },
{"id": "20","post_code": "1020","name_fr": "Metarfa","wilaya_id": "54","name_ar": "المطارفة","latitude": "28.9023604","longitude": "-0.1754255" },
{"id": "21","post_code": "1021","name_fr": "Ouled Ahmed Tammi","wilaya_id": "1","name_ar": "أولاد أحمد تيمى","latitude": "27.8403966","longitude": "-0.2864201" },
{"id": "22","post_code": "1022","name_fr": "Bouda","wilaya_id": "1","name_ar": "بودة","latitude": "28.0281221","longitude": "-0.4605604" },
{"id": "23","post_code": "1023","name_fr": "Aougrout","wilaya_id": "54","name_ar": "أوقروت","latitude": "28.9298103","longitude": "0.7217249" },
{"id": "24","post_code": "1024","name_fr": "Talmine","wilaya_id": "54","name_ar": "ﻃﺎﻟﻤﻴﻦ","latitude": "29.2966959","longitude": "-0.9017014" },
{"id": "25","post_code": "1025","name_fr": "Bordj Badji Mokhtar","wilaya_id": "52","name_ar": "برج باجي مختار","latitude": "21.32551","longitude": "0.9524803" },
{"id": "26","post_code": "1026","name_fr": "Sbaa","wilaya_id": "1","name_ar": "السبع","latitude": "28.2038417","longitude": "-0.1727807" },
{"id": "27","post_code": "1027","name_fr": "Ouled Aissa","wilaya_id": "54","name_ar": "أولاد عيسى","latitude": "29.6425461","longitude": "-0.7303192" },
{"id": "28","post_code": "1028","name_fr": "Timiaouine","wilaya_id": "1","name_ar": "تيمياوين","latitude": "20.4397916","longitude": "1.8078161" },
{"id": "29","post_code": "2001","name_fr": "Chlef","wilaya_id": "2","name_ar": "الشلف","latitude": "36.1579664","longitude": "1.3372823" },
{"id": "30","post_code": "2002","name_fr": "Tenes","wilaya_id": "2","name_ar": "تنس","latitude": "36.5081163","longitude": "1.3078225" },
{"id": "31","post_code": "2003","name_fr": "Benairia","wilaya_id": "2","name_ar": "بنايرية","latitude": "36.3534233","longitude": "1.3733703" },
{"id": "32","post_code": "2004","name_fr": "El Karimia","wilaya_id": "2","name_ar": "الكريمية","latitude": "36.111108","longitude": "1.5535633" },
{"id": "33","post_code": "2005","name_fr": "Tadjna","wilaya_id": "2","name_ar": "تاجنة","latitude": "36.3226587","longitude": "1.1364375" },
{"id": "34","post_code": "2006","name_fr": "Taougrite","wilaya_id": "2","name_ar": "تاوقريت","latitude": "36.2643544","longitude": "0.9127327" },
{"id": "35","post_code": "2007","name_fr": "Beni Haoua","wilaya_id": "2","name_ar": "بني حواء","latitude": "36.5281446","longitude": "1.5736608" },
{"id": "36","post_code": "2008","name_fr": "Sobha","wilaya_id": "2","name_ar": "صبحة","latitude": "36.1173742","longitude": "1.0490374" },
{"id": "37","post_code": "2009","name_fr": "Harchoun","wilaya_id": "2","name_ar": "حرشون","latitude": "36.1149405","longitude": "1.5056953" },
{"id": "38","post_code": "2010","name_fr": "Ouled Fares","wilaya_id": "2","name_ar": "أولاد فارس","latitude": "36.2309293","longitude": "1.2341846" },
{"id": "39","post_code": "2011","name_fr": "Sidi Akacha","wilaya_id": "2","name_ar": "سيدي عكاشة","latitude": "36.4625212","longitude": "1.3020848" },
{"id": "40","post_code": "2012","name_fr": "Boukadir","wilaya_id": "2","name_ar": "بوقدير","latitude": "36.060248","longitude": "1.1305809" },
{"id": "41","post_code": "2013","name_fr": "Beni Rached","wilaya_id": "2","name_ar": "بني راشد","latitude": "36.2769023","longitude": "1.5217991" },
{"id": "42","post_code": "2014","name_fr": "Talassa","wilaya_id": "2","name_ar": "تلعصة","latitude": "36.4278518","longitude": "1.0838409" },
{"id": "43","post_code": "2015","name_fr": "Herenfa","wilaya_id": "2","name_ar": "الهرنفة","latitude": "36.2484295","longitude": "1.048431" },
{"id": "44","post_code": "2016","name_fr": "Oued Goussine","wilaya_id": "2","name_ar": "واد ڨوسين","latitude": "36.4914862","longitude": "1.4517636" },
{"id": "45","post_code": "2017","name_fr": "Dahra","wilaya_id": "2","name_ar": "الظهرة","latitude": "36.2557678","longitude": "0.8501654" },
{"id": "46","post_code": "2018","name_fr": "Ouled Abbes","wilaya_id": "2","name_ar": "أولاد عباس","latitude": "36.215137","longitude": "1.4863118" },
{"id": "47","post_code": "2019","name_fr": "Sendjas","wilaya_id": "2","name_ar": "سنجاس","latitude": "36.0636606","longitude": "1.3997094" },
{"id": "48","post_code": "2020","name_fr": "Zeboudja","wilaya_id": "2","name_ar": "الزبوجة","latitude": "36.353359","longitude": "1.4313751" },
{"id": "49","post_code": "2021","name_fr": "Oued Sly","wilaya_id": "2","name_ar": "واد سلي","latitude": "36.0994743","longitude": "1.2006905" },
{"id": "50","post_code": "2022","name_fr": "Abou El Hassen","wilaya_id": "2","name_ar": "أبو الحسن","latitude": "36.4197053","longitude": "1.1871265" },
{"id": "51","post_code": "2023","name_fr": "El Marsa","wilaya_id": "2","name_ar": "المرصى","latitude": "36.4028103","longitude": "0.9155118" },
{"id": "52","post_code": "2024","name_fr": "Chettia","wilaya_id": "2","name_ar": "الشطية","latitude": "36.1944323","longitude": "1.2568799" },
{"id": "53","post_code": "2025","name_fr": "Sidi Abderrahmane","wilaya_id": "2","name_ar": "سيدي عبد الرحمان","latitude": "36.4930061","longitude": "1.0940294" },
{"id": "54","post_code": "2026","name_fr": "Moussadek","wilaya_id": "2","name_ar": "مصدق","latitude": "36.3543713","longitude": "1.0073054" },
{"id": "55","post_code": "2027","name_fr": "El Hadjadj","wilaya_id": "2","name_ar": "الحجاج","latitude": "36.0174317","longitude": "1.3773945" },
{"id": "56","post_code": "2028","name_fr": "Labiod Medjadja","wilaya_id": "2","name_ar": "الأبيض مجاجة","latitude": "36.2520562","longitude": "1.3932061" },
{"id": "57","post_code": "2029","name_fr": "Oued Fodda","wilaya_id": "2","name_ar": "واد الفضة","latitude": "36.1884187","longitude": "1.5328078" },
{"id": "58","post_code": "2030","name_fr": "Ouled Ben Abdelkader","wilaya_id": "2","name_ar": "أولاد بن عبد القادر","latitude": "36.0238789","longitude": "1.2745252" },
{"id": "59","post_code": "2031","name_fr": "Bouzghaia","wilaya_id": "2","name_ar": "بوزغاية","latitude": "36.338745","longitude": "1.240543" },
{"id": "60","post_code": "2032","name_fr": "Ain Merane","wilaya_id": "2","name_ar": "عين مران","latitude": "36.1620144","longitude": "0.9703582" },
{"id": "61","post_code": "2033","name_fr": "Oum Drou","wilaya_id": "2","name_ar": "أم الذروع","latitude": "36.1977011","longitude": "1.3903197" },
{"id": "62","post_code": "2034","name_fr": "Breira","wilaya_id": "2","name_ar": "بريرة","latitude": "36.4491252","longitude": "1.6157348" },
{"id": "63","post_code": "2035","name_fr": "Beni Bouateb","wilaya_id": "2","name_ar": "بني بوعتاب","latitude": "35.9945435","longitude": "1.6194169" },
{"id": "64","post_code": "3001","name_fr": "Laghouat","wilaya_id": "3","name_ar": "الأغواط","latitude": "33.8078341","longitude": "2.8628294" },
{"id": "65","post_code": "3002","name_fr": "Ksar El Hirane","wilaya_id": "3","name_ar": "قصر الحيران","latitude": "33.7893156","longitude": "3.1459092" },
{"id": "66","post_code": "3003","name_fr": "Benacer Ben Chohra","wilaya_id": "3","name_ar": "بن ناصر بن شهرة","latitude": "33.7540433","longitude": "2.9975588" },
{"id": "67","post_code": "3004","name_fr": "Sidi Makhlouf","wilaya_id": "3","name_ar": "سيدي مخلوف","latitude": "34.1314751","longitude": "3.0141573" },
{"id": "68","post_code": "3005","name_fr": "Hassi Delaa","wilaya_id": "3","name_ar": "حاسي دلاعة","latitude": "33.4173456","longitude": "3.5511869" },
{"id": "69","post_code": "3006","name_fr": "Hassi R'Mel","wilaya_id": "3","name_ar": "حاسي الرمل","latitude": "32.9276121","longitude": "3.2712646" },
{"id": "70","post_code": "3007","name_fr": "Ain Mahdi","wilaya_id": "3","name_ar": "عــيــن مـــاضــي","latitude": "33.7986775","longitude": "2.3074412" },
{"id": "71","post_code": "3008","name_fr": "Tadjmout","wilaya_id": "3","name_ar": "تاجموت","latitude": "33.8806065","longitude": "2.5261564" },
{"id": "72","post_code": "3009","name_fr": "El Kheneg","wilaya_id": "3","name_ar": "الخنق","latitude": "33.7448019","longitude": "2.794623" },
{"id": "73","post_code": "3010","name_fr": "Gueltat Sidi Saad","wilaya_id": "3","name_ar": "قلتة سيدي سعد","latitude": "34.2978145","longitude": "1.9494906" },
{"id": "74","post_code": "3011","name_fr": "Ain Sidi Ali","wilaya_id": "3","name_ar": "عين سيدي علي","latitude": "34.1569746","longitude": "1.5431231" },
{"id": "75","post_code": "3012","name_fr": "Beidha","wilaya_id": "3","name_ar": "بيضاء","latitude": "34.4764514","longitude": "2.1713341" },
{"id": "76","post_code": "3013","name_fr": "Brida","wilaya_id": "3","name_ar": "بريدة","latitude": "33.9063818","longitude": "1.7845741" },
{"id": "77","post_code": "3014","name_fr": "El Ghicha","wilaya_id": "3","name_ar": "الغيشة","latitude": "33.9309925","longitude": "2.1437493" },
{"id": "78","post_code": "3015","name_fr": "Hadj Mechri","wilaya_id": "3","name_ar": "الحاج المشري","latitude": "33.9584012","longitude": "1.5992137" },
{"id": "79","post_code": "3016","name_fr": "Sebgag","wilaya_id": "3","name_ar": "سبقاق","latitude": "34.0290227","longitude": "1.9302711" },
{"id": "80","post_code": "3017","name_fr": "Taouiala","wilaya_id": "3","name_ar": "تاويالة","latitude": "33.87006","longitude": "1.8556553" },
{"id": "81","post_code": "3018","name_fr": "Tadjrouna","wilaya_id": "3","name_ar": "تاجرونة","latitude": "33.5048634","longitude": "2.1039463" },
{"id": "82","post_code": "3019","name_fr": "Aflou","wilaya_id": "3","name_ar": "أفلو","latitude": "34.1139518","longitude": "2.0973854" },
{"id": "83","post_code": "3020","name_fr": "El Assafia","wilaya_id": "3","name_ar": "العسافية","latitude": "33.8249884","longitude": "2.9915299" },
{"id": "84","post_code": "3021","name_fr": "Oued Morra","wilaya_id": "3","name_ar": "وادي مرة","latitude": "34.1645355","longitude": "2.3233788" },
{"id": "85","post_code": "3022","name_fr": "Oued M'Zi","wilaya_id": "3","name_ar": "وادي مزي","latitude": "34.1522996","longitude": "2.1851531" },
{"id": "86","post_code": "3023","name_fr": "El Haouaita","wilaya_id": "3","name_ar": "الهوارية","latitude": "33.6464661","longitude": "2.4487928" },
{"id": "87","post_code": "3024","name_fr": "Sidi Bouzid","wilaya_id": "3","name_ar": "سيدي بوزيد","latitude": "34.297928","longitude": "2.2361748" },
{"id": "88","post_code": "4001","name_fr": "Oum El Bouaghi","wilaya_id": "4","name_ar": "أم البواقي","latitude": "35.8688789","longitude": "7.1108266" },
{"id": "89","post_code": "4002","name_fr": "Ain Beida","wilaya_id": "4","name_ar": "عين البيضاء","latitude": "35.796101","longitude": "7.3903528" },
{"id": "90","post_code": "4003","name_fr": "Ain M'lila","wilaya_id": "4","name_ar": "عين مليلة","latitude": "36.0343972","longitude": "6.5737863" },
{"id": "91","post_code": "4004","name_fr": "Behir Chergui","wilaya_id": "4","name_ar": "بحير الشرڨي","latitude": "35.7933901","longitude": "7.7174148" },
{"id": "92","post_code": "4005","name_fr": "El Amiria","wilaya_id": "4","name_ar": "العامرية","latitude": "36.1117891","longitude": "6.8820546" },
{"id": "93","post_code": "4006","name_fr": "Sigus","wilaya_id": "4","name_ar": "سيقوس","latitude": "36.124066","longitude": "6.7885108" },
{"id": "94","post_code": "4007","name_fr": "El Belala","wilaya_id": "4","name_ar": "البلالة","latitude": "35.6661553","longitude": "7.7882546" },
{"id": "95","post_code": "4008","name_fr": "Ain Babouche","wilaya_id": "4","name_ar": "عين بابوش","latitude": "35.9412663","longitude": "7.1868734" },
{"id": "96","post_code": "4009","name_fr": "Berriche","wilaya_id": "4","name_ar": "بريش","latitude": "35.9191832","longitude": "7.3764198" },
{"id": "97","post_code": "4010","name_fr": "Ouled Hamla","wilaya_id": "4","name_ar": "أولاد حملة","latitude": "36.0827768","longitude": "6.4664056" },
{"id": "98","post_code": "4011","name_fr": "Dhala","wilaya_id": "4","name_ar": "الضلعة","latitude": "35.4603047","longitude": "7.5481705" },
{"id": "99","post_code": "4012","name_fr": "Ain Kercha","wilaya_id": "4","name_ar": "عين كرشة","latitude": "35.924848","longitude": "6.6959712" },
{"id": "100","post_code": "4013","name_fr": "Hanchir Toumghani","wilaya_id": "4","name_ar": "هنشير تومغني","latitude": "35.9381303","longitude": "6.7368879" },
{"id": "101","post_code": "4014","name_fr": "El Djazia","wilaya_id": "4","name_ar": "الجازيـــــــة","latitude": "35.6647747","longitude": "7.510192" },
{"id": "102","post_code": "4015","name_fr": "Ain Diss","wilaya_id": "4","name_ar": "عين الديس","latitude": "35.9951529","longitude": "7.0537034" },
{"id": "103","post_code": "4016","name_fr": "Fkirina","wilaya_id": "4","name_ar": "فكرينة","latitude": "35.6671874","longitude": "7.3014064" },
{"id": "104","post_code": "4017","name_fr": "Souk Naamane","wilaya_id": "4","name_ar": "سوق نعمان","latitude": "35.8987042","longitude": "6.3878332" },
{"id": "105","post_code": "4018","name_fr": "Zorg","wilaya_id": "4","name_ar": "الزرڨ","latitude": "35.8287963","longitude": "7.5116443" },
{"id": "106","post_code": "4019","name_fr": "El Fedjoudj Boughrara Saoudi","wilaya_id": "4","name_ar": "الفجوج بوغرارة سعودى","latitude": "35.7099376","longitude": "6.8203794" },
{"id": "107","post_code": "4020","name_fr": "Ouled Zouai","wilaya_id": "4","name_ar": "أولاد زواي","latitude": "35.8417703","longitude": "6.510184" },
{"id": "108","post_code": "4021","name_fr": "Bir Chouhada","wilaya_id": "4","name_ar": "بئر الشهداء","latitude": "35.8946679","longitude": "6.2900215" },
{"id": "109","post_code": "4022","name_fr": "Ksar Sbahi","wilaya_id": "4","name_ar": "قصر صباحي","latitude": "36.083028","longitude": "7.2596872" },
{"id": "110","post_code": "4023","name_fr": "Oued Nini","wilaya_id": "4","name_ar": "وادي نيني","latitude": "35.5691356","longitude": "7.3481387" },
{"id": "111","post_code": "4024","name_fr": "Meskiana","wilaya_id": "4","name_ar": "مسكيانة","latitude": "35.6338341","longitude": "7.6661215" },
{"id": "112","post_code": "4025","name_fr": "Ain Fekroune","wilaya_id": "4","name_ar": "عين فكرون","latitude": "35.9772098","longitude": "6.8733714" },
{"id": "113","post_code": "4026","name_fr": "Rahia","wilaya_id": "4","name_ar": "الراحية","latitude": "35.7617596","longitude": "7.6441358" },
{"id": "114","post_code": "4027","name_fr": "Ain Zitoun","wilaya_id": "4","name_ar": "عين الزيتون","latitude": "35.7149826","longitude": "7.0143402" },
{"id": "115","post_code": "4028","name_fr": "Ouled Gacem","wilaya_id": "4","name_ar": "أولاد ڨاسم","latitude": "36.033935","longitude": "6.6670462" },
{"id": "116","post_code": "4029","name_fr": "El Harmilia","wilaya_id": "4","name_ar": "الحرملية","latitude": "35.9248165","longitude": "6.6228428" },
{"id": "117","post_code": "5001","name_fr": "Batna","wilaya_id": "5","name_ar": "باتنة","latitude": "35.5965954","longitude": "5.8987139" },
{"id": "118","post_code": "5002","name_fr": "Ghassira","wilaya_id": "5","name_ar": "غسيرة","latitude": "35.1010993","longitude": "6.2268877" },
{"id": "119","post_code": "5003","name_fr": "Maafa","wilaya_id": "5","name_ar": "معافة","latitude": "35.2900679","longitude": "5.8609424" },
{"id": "120","post_code": "5004","name_fr": "Merouana","wilaya_id": "5","name_ar": "مروانة","latitude": "35.6299464","longitude": "5.9118713" },
{"id": "121","post_code": "5005","name_fr": "Seriana","wilaya_id": "5","name_ar": "سريانة","latitude": "35.6977699","longitude": "6.1879742" },
{"id": "122","post_code": "5006","name_fr": "Menaa","wilaya_id": "5","name_ar": "منعة","latitude": "35.161671","longitude": "6.0495102" },
{"id": "123","post_code": "5007","name_fr": "El Madher","wilaya_id": "5","name_ar": "المعذر","latitude": "35.6274186","longitude": "6.3733989" },
{"id": "124","post_code": "5008","name_fr": "Tazoult","wilaya_id": "5","name_ar": "تازولت","latitude": "35.5634192","longitude": "6.1889996" },
{"id": "125","post_code": "5009","name_fr": "Ngaous","wilaya_id": "5","name_ar": "نڨاوس","latitude": "35.5472882","longitude": "5.6296201" },
{"id": "126","post_code": "5010","name_fr": "Guigba","wilaya_id": "5","name_ar": "قيقبة","latitude": "35.7341918","longitude": "5.5902325" },
{"id": "127","post_code": "5011","name_fr": "Inoughissen","wilaya_id": "5","name_ar": "إينوغيسن","latitude": "35.3048379","longitude": "6.5489739" },
{"id": "128","post_code": "5012","name_fr": "Ouyoun El Assafir","wilaya_id": "5","name_ar": "عيون العصافير","latitude": "35.5535732","longitude": "6.3073931" },
{"id": "129","post_code": "5013","name_fr": "Djerma","wilaya_id": "5","name_ar": "جرمة","latitude": "35.6635285","longitude": "6.3073021" },
{"id": "130","post_code": "5014","name_fr": "Bitam","wilaya_id": "5","name_ar": "بيطام","latitude": "35.3076183","longitude": "5.3741906" },
{"id": "131","post_code": "5015","name_fr": "Metkaouak","wilaya_id": "5","name_ar": "عزيل عبد القادر","latitude": "35.5017333","longitude": "5.0704717" },
{"id": "132","post_code": "5016","name_fr": "Arris","wilaya_id": "5","name_ar": "اريس","latitude": "35.2582527","longitude": "6.3458058" },
{"id": "133","post_code": "5017","name_fr": "Kimmel","wilaya_id": "5","name_ar": "كيمل","latitude": "35.2175665","longitude": "6.5448679" },
{"id": "134","post_code": "5018","name_fr": "Tilatou","wilaya_id": "5","name_ar": "تيلاطو","latitude": "35.3569303","longitude": "5.7135964" },
{"id": "135","post_code": "5019","name_fr": "Ain Djasser","wilaya_id": "5","name_ar": "عين جاسر","latitude": "35.8609716","longitude": "6.0036004" },
{"id": "136","post_code": "5020","name_fr": "Ouled Selam","wilaya_id": "5","name_ar": "أولاد سلام","latitude": "35.8246511","longitude": "5.8823791" },
{"id": "137","post_code": "5021","name_fr": "Tigherghar","wilaya_id": "5","name_ar": "تيغرغار","latitude": "35.1137477","longitude": "5.927971" },
{"id": "138","post_code": "5022","name_fr": "Ain Yagout","wilaya_id": "5","name_ar": "عين ياقوت","latitude": "35.7772688","longitude": "6.4154016" },
{"id": "139","post_code": "5023","name_fr": "Fesdis","wilaya_id": "5","name_ar": "فسديس","latitude": "35.617575","longitude": "6.247072" },
{"id": "140","post_code": "5024","name_fr": "Sefiane","wilaya_id": "5","name_ar": "سفيان","latitude": "35.437887","longitude": "5.5584188" },
{"id": "141","post_code": "5025","name_fr": "Rahbat","wilaya_id": "5","name_ar": "الرحبات","latitude": "35.7119924","longitude": "5.655117" },
{"id": "142","post_code": "5026","name_fr": "Tighanimine","wilaya_id": "5","name_ar": "تيغانمين","latitude": "35.2124733","longitude": "6.3030262" },
{"id": "143","post_code": "5027","name_fr": "Lemsane","wilaya_id": "5","name_ar": "لمسان","latitude": "35.654641","longitude": "5.7946494" },
{"id": "144","post_code": "5028","name_fr": "Ksar Belezma","wilaya_id": "5","name_ar": "قصر بلازمة","latitude": "35.6766705","longitude": "5.9033229" },
{"id": "145","post_code": "5029","name_fr": "Seggana","wilaya_id": "5","name_ar": "سقانة","latitude": "35.365","longitude": "5.5743675" },
{"id": "146","post_code": "5030","name_fr": "Ichmoul","wilaya_id": "5","name_ar": "ايشمول","latitude": "35.3107117","longitude": "6.5088845" },
{"id": "147","post_code": "5031","name_fr": "Foum Toub","wilaya_id": "5","name_ar": "فم الطوب","latitude": "35.4034215","longitude": "6.5497102" },
{"id": "148","post_code": "5032","name_fr": "Beni Foudhala El Hakania","wilaya_id": "5","name_ar": "بنى فضالة الحقانية","latitude": "35.3875835","longitude": "6.0504475" },
{"id": "149","post_code": "5033","name_fr": "Oued El Ma","wilaya_id": "5","name_ar": "واد الماء","latitude": "35.6355751","longitude": "6.0245499" },
{"id": "150","post_code": "5034","name_fr": "Talkhamt","wilaya_id": "5","name_ar": "تالخمت","latitude": "35.7077852","longitude": "5.7158926" },
{"id": "151","post_code": "5035","name_fr": "Bouzina","wilaya_id": "5","name_ar": "بوزينة","latitude": "35.2686172","longitude": "6.1007091" },
{"id": "152","post_code": "5036","name_fr": "Chemora","wilaya_id": "5","name_ar": "الشمرة","latitude": "35.6685281","longitude": "6.6429744" },
{"id": "153","post_code": "5037","name_fr": "Oued Chaaba","wilaya_id": "5","name_ar": "واد الشعبة","latitude": "35.5400594","longitude": "6.081734" },
{"id": "154","post_code": "5038","name_fr": "Taxlent","wilaya_id": "5","name_ar": "تاكسلانت","latitude": "35.6051624","longitude": "5.8024379" },
{"id": "155","post_code": "5039","name_fr": "Gosbat","wilaya_id": "5","name_ar": "القصبات","latitude": "35.6477383","longitude": "5.4597255" },
{"id": "156","post_code": "5040","name_fr": "Ouled Aouf","wilaya_id": "5","name_ar": "أولاد عوف","latitude": "35.4390518","longitude": "5.7762417" },
{"id": "157","post_code": "5041","name_fr": "Boumagueur","wilaya_id": "5","name_ar": "بــومقر","latitude": "35.5119863","longitude": "5.5586426" },
{"id": "158","post_code": "5042","name_fr": "Barika","wilaya_id": "5","name_ar": "بريكة","latitude": "35.3877747","longitude": "5.3703633" },
{"id": "159","post_code": "5043","name_fr": "Djezzar","wilaya_id": "5","name_ar": "الجزار","latitude": "35.511776","longitude": "5.2685804" },
{"id": "160","post_code": "5044","name_fr": "Tkout","wilaya_id": "5","name_ar": "تكوت","latitude": "35.1426113","longitude": "6.3052404" },
{"id": "161","post_code": "5045","name_fr": "Ain Touta","wilaya_id": "5","name_ar": "عين التوتة","latitude": "35.3808071","longitude": "5.9020128" },
{"id": "162","post_code": "5046","name_fr": "Hidoussa","wilaya_id": "5","name_ar": "حيدوسة","latitude": "35.5278391","longitude": "5.9377628" },
{"id": "163","post_code": "5047","name_fr": "Teniet El Abed","wilaya_id": "5","name_ar": "نية العابد","latitude": "35.2835021","longitude": "6.2507268" },
{"id": "164","post_code": "5048","name_fr": "Oued Taga","wilaya_id": "5","name_ar": "وادي الطاقة","latitude": "35.4313748","longitude": "6.4141923" },
{"id": "165","post_code": "5049","name_fr": "Ouled Fadel","wilaya_id": "5","name_ar": "أولاد فاضل","latitude": "35.4841714","longitude": "6.6255052" },
{"id": "166","post_code": "5050","name_fr": "Timgad","wilaya_id": "5","name_ar": "تيمقاد","latitude": "35.4949115","longitude": "6.4680125" },
{"id": "167","post_code": "5051","name_fr": "Ras El Aioun","wilaya_id": "5","name_ar": "رأس العيون","latitude": "35.681438","longitude": "5.6545312" },
{"id": "168","post_code": "5052","name_fr": "Chir","wilaya_id": "5","name_ar": "شير","latitude": "35.2273569","longitude": "6.1321997" },
{"id": "169","post_code": "5053","name_fr": "Ouled Si Slimane","wilaya_id": "5","name_ar": "أولاد سي سليمان","latitude": "35.6119316","longitude": "5.632816" },
{"id": "170","post_code": "5054","name_fr": "Zanat El Beida","wilaya_id": "5","name_ar": "زانة البيضاء","latitude": "35.7791109","longitude": "6.0850562" },
{"id": "171","post_code": "5055","name_fr": "M'doukel","wilaya_id": "5","name_ar": "أمدوكال","latitude": "35.1202951","longitude": "5.1787047" },
{"id": "172","post_code": "5056","name_fr": "Ouled Ammar","wilaya_id": "5","name_ar": "أولاد عمار","latitude": "35.4623508","longitude": "5.1563482" },
{"id": "173","post_code": "5057","name_fr": "El Hassi","wilaya_id": "5","name_ar": "الحاسي","latitude": "35.8026101","longitude": "5.9405131" },
{"id": "174","post_code": "5058","name_fr": "Lazrou","wilaya_id": "5","name_ar": "لازرو","latitude": "35.8429386","longitude": "6.2166563" },
{"id": "175","post_code": "5059","name_fr": "Boumia","wilaya_id": "5","name_ar": "بومية","latitude": "35.6781896","longitude": "6.4825848" },
{"id": "176","post_code": "5060","name_fr": "Boulhilat","wilaya_id": "5","name_ar": "بولهيلات","latitude": "35.7265729","longitude": "6.6624893" },
{"id": "177","post_code": "5061","name_fr": "Larbaa","wilaya_id": "5","name_ar": "الاربعاء","latitude": "35.3543202","longitude": "6.1405199" },
{"id": "178","post_code": "6001","name_fr": "Bejaia","wilaya_id": "6","name_ar": "بجاية","latitude": "36.7515258","longitude": "5.0556837" },
{"id": "179","post_code": "6002","name_fr": "Amizour","wilaya_id": "6","name_ar": "اميزور","latitude": "36.643932","longitude": "4.9036584" },
{"id": "180","post_code": "6003","name_fr": "Ferraoun","wilaya_id": "6","name_ar": "فرعون","latitude": "36.5583932","longitude": "4.8603313" },
{"id": "181","post_code": "6004","name_fr": "Taourirt Ighil","wilaya_id": "6","name_ar": "تاوريرت اغيل","latitude": "36.6991468","longitude": "4.6963423" },
{"id": "182","post_code": "6005","name_fr": "Chelata","wilaya_id": "6","name_ar": "شلاطة","latitude": "36.5149458","longitude": "4.5019323" },
{"id": "183","post_code": "6006","name_fr": "Tamokra","wilaya_id": "6","name_ar": "تامقرة","latitude": "36.4063322","longitude": "4.6570554" },
{"id": "184","post_code": "6007","name_fr": "Timzrit","wilaya_id": "6","name_ar": "تيمزريت","latitude": "36.620123","longitude": "4.7684786" },
{"id": "185","post_code": "6008","name_fr": "Souk El Thenine","wilaya_id": "6","name_ar": "ﺳﻮق اﻻﺛﻨﻴﻦ","latitude": "36.6279732","longitude": "5.3351901" },
{"id": "186","post_code": "6009","name_fr": "M'cisna","wilaya_id": "6","name_ar": "مسيسنة","latitude": "36.5633304","longitude": "4.7104188" },
{"id": "187","post_code": "6010","name_fr": "Thinabdher","wilaya_id": "6","name_ar": "تينبذار","latitude": "36.6258265","longitude": "4.685691" },
{"id": "188","post_code": "6011","name_fr": "Tichi","wilaya_id": "6","name_ar": "تيشي","latitude": "36.6550461","longitude": "5.1638936" },
{"id": "189","post_code": "6012","name_fr": "Semaoun","wilaya_id": "6","name_ar": "سمعون","latitude": "36.6085942","longitude": "4.8218303" },
{"id": "190","post_code": "6013","name_fr": "Kendira","wilaya_id": "6","name_ar": "كنديرة","latitude": "36.5410126","longitude": "5.0110481" },
{"id": "191","post_code": "6014","name_fr": "Tifra","wilaya_id": "6","name_ar": "تيفرة","latitude": "36.6667252","longitude": "4.6977801" },
{"id": "192","post_code": "6015","name_fr": "Ighram","wilaya_id": "6","name_ar": "إغرم","latitude": "36.4762006","longitude": "4.4623752" },
{"id": "193","post_code": "6016","name_fr": "Amalou","wilaya_id": "6","name_ar": "امالو","latitude": "36.4779273","longitude": "4.6318759" },
{"id": "194","post_code": "6017","name_fr": "Ighil Ali","wilaya_id": "6","name_ar": "إغيل على","latitude": "36.3381614","longitude": "4.4696225" },
{"id": "195","post_code": "6018","name_fr": "Ifelain Ilmathen","wilaya_id": "6","name_ar": "افناين الماثن","latitude": "36.6656324","longitude": "4.770215" },
{"id": "196","post_code": "6019","name_fr": "Toudja","wilaya_id": "6","name_ar": "توجة","latitude": "36.752559","longitude": "4.8949647" },
{"id": "197","post_code": "6020","name_fr": "Darguina","wilaya_id": "6","name_ar": "درقينة","latitude": "36.5642523","longitude": "5.3061543" },
{"id": "198","post_code": "6021","name_fr": "Sidi Ayad","wilaya_id": "6","name_ar": "سيدي عياد","latitude": "36.6121428","longitude": "4.7150403" },
{"id": "199","post_code": "6022","name_fr": "Aokas","wilaya_id": "6","name_ar": "أوقاس","latitude": "36.6376346","longitude": "5.2452449" },
{"id": "200","post_code": "6023","name_fr": "Ait Djellil","wilaya_id": "6","name_ar": "آيث جليل","latitude": "36.5669821","longitude": "4.8002333" },
{"id": "201","post_code": "6024","name_fr": "Adekar","wilaya_id": "6","name_ar": "آدكار","latitude": "36.6932853","longitude": "4.6709083" },
{"id": "202","post_code": "6025","name_fr": "Akbou","wilaya_id": "6","name_ar": "أقبو","latitude": "36.4556403","longitude": "4.5365087" },
{"id": "203","post_code": "6026","name_fr": "Seddouk","wilaya_id": "6","name_ar": "صدوق","latitude": "36.5467873","longitude": "4.6867022" },
{"id": "204","post_code": "6027","name_fr": "Tazmalt","wilaya_id": "6","name_ar": "تازمالت","latitude": "36.3903818","longitude": "4.3954971" },
{"id": "205","post_code": "6028","name_fr": "Ait R'zine","wilaya_id": "6","name_ar": "آيت أرزين","latitude": "36.3712651","longitude": "4.4857531" },
{"id": "206","post_code": "6029","name_fr": "Chemini","wilaya_id": "6","name_ar": "شميني","latitude": "36.5932839","longitude": "4.6149077" },
{"id": "207","post_code": "6030","name_fr": "Souk Oufella","wilaya_id": "6","name_ar": "سوق أوفلة","latitude": "36.6036779","longitude": "4.6369294" },
{"id": "208","post_code": "6031","name_fr": "Taskriout","wilaya_id": "6","name_ar": "تاسقريوت","latitude": "36.5548754","longitude": "5.2860696" },
{"id": "209","post_code": "6032","name_fr": "Tibane","wilaya_id": "6","name_ar": "طيبان","latitude": "36.6115653","longitude": "4.6501998" },
{"id": "210","post_code": "6033","name_fr": "Tala Hamza","wilaya_id": "6","name_ar": "ثالة حمزة","latitude": "36.6813537","longitude": "5.0144693" },
{"id": "211","post_code": "6034","name_fr": "Barbacha","wilaya_id": "6","name_ar": "برباشة","latitude": "36.570766","longitude": "4.9735173" },
{"id": "212","post_code": "6035","name_fr": "Beni Ksila","wilaya_id": "6","name_ar": "بنى كسيلة","latitude": "36.8821115","longitude": "4.6616052" },
{"id": "213","post_code": "6036","name_fr": "Ouzallaguen","wilaya_id": "6","name_ar": "أوزلاقن","latitude": "36.5400379","longitude": "4.6118685" },
{"id": "214","post_code": "6037","name_fr": "Bouhamza","wilaya_id": "6","name_ar": "بوحمزة","latitude": "36.4455834","longitude": "4.6860118" },
{"id": "215","post_code": "6038","name_fr": "Beni Melikeche","wilaya_id": "6","name_ar": "بنى مليكش","latitude": "36.4456892","longitude": "4.4134228" },
{"id": "216","post_code": "6039","name_fr": "Sidi Aich","wilaya_id": "6","name_ar": "سيدي عيش","latitude": "36.6097178","longitude": "4.6901722" },
{"id": "217","post_code": "6040","name_fr": "El Kseur","wilaya_id": "6","name_ar": "القصر","latitude": "36.6775376","longitude": "4.8492903" },
{"id": "218","post_code": "6041","name_fr": "Melbou","wilaya_id": "6","name_ar": "ملبو","latitude": "36.6403319","longitude": "5.3625393" },
{"id": "219","post_code": "6042","name_fr": "Akfadou","wilaya_id": "6","name_ar": "اكفادو","latitude": "36.6605042","longitude": "4.6140481" },
{"id": "220","post_code": "6043","name_fr": "Leflaye","wilaya_id": "6","name_ar": "لفلاى","latitude": "36.6080149","longitude": "4.6659798" },
{"id": "221","post_code": "6044","name_fr": "Kherrata","wilaya_id": "6","name_ar": "خراطة","latitude": "36.4936399","longitude": "5.2770714" },
{"id": "222","post_code": "6045","name_fr": "Draa Kaid","wilaya_id": "6","name_ar": "ذراع القايد","latitude": "36.4186067","longitude": "5.2637316" },
{"id": "223","post_code": "6046","name_fr": "Tamridjet","wilaya_id": "6","name_ar": "تامريجت","latitude": "36.5722712","longitude": "5.3735554" },
{"id": "224","post_code": "6047","name_fr": "Ait Smail","wilaya_id": "6","name_ar": "آيت سماعيل","latitude": "36.5541391","longitude": "5.2378816" },
{"id": "225","post_code": "6048","name_fr": "Boukhelifa","wilaya_id": "6","name_ar": "بوخليفة","latitude": "36.6508084","longitude": "5.0721395" },
{"id": "226","post_code": "6049","name_fr": "Tizi N'berber","wilaya_id": "6","name_ar": "تيزى نبربر","latitude": "36.6125331","longitude": "5.2169916" },
{"id": "227","post_code": "6050","name_fr": "Beni Maouch","wilaya_id": "6","name_ar": "بني معوش","latitude": "36.5052688","longitude": "4.7623453" },
{"id": "228","post_code": "6051","name_fr": "Oued Ghir","wilaya_id": "6","name_ar": "وادي غير","latitude": "36.7055013","longitude": "4.9790384" },
{"id": "229","post_code": "6052","name_fr": "Boudjellil","wilaya_id": "6","name_ar": "بوجليل","latitude": "36.3372674","longitude": "4.3789943" },
{"id": "230","post_code": "7001","name_fr": "Biskra","wilaya_id": "7","name_ar": "بسكرة","latitude": "34.8449437","longitude": "5.7248567" },
{"id": "231","post_code": "7002","name_fr": "Oumache","wilaya_id": "7","name_ar": "أوماش","latitude": "34.6938159","longitude": "5.6980708" },
{"id": "232","post_code": "7003","name_fr": "Branis","wilaya_id": "7","name_ar": "البرانس","latitude": "34.9802172","longitude": "5.7126369" },
{"id": "233","post_code": "7004","name_fr": "Chetma","wilaya_id": "7","name_ar": "شتمة","latitude": "34.8497845","longitude": "5.7888475" },
{"id": "234","post_code": "7005","name_fr": "Ouled Djellal","wilaya_id": "51","name_ar": "أولاد جلال","latitude": "34.4294289","longitude": "5.0681159" },
{"id": "235","post_code": "7006","name_fr": "Ras El Miaad","wilaya_id": "7","name_ar": "راس الميعاد","latitude": "34.1845657","longitude": "4.4532812" },
{"id": "236","post_code": "7007","name_fr": "Besbes","wilaya_id": "7","name_ar": "البسباس","latitude": "34.1481353","longitude": "4.9933549" },
{"id": "237","post_code": "7008","name_fr": "Sidi Khaled","wilaya_id": "7","name_ar": "سيدي خالد","latitude": "34.397074","longitude": "4.9970929" },
{"id": "238","post_code": "7009","name_fr": "Doucen","wilaya_id": "7","name_ar": "الدوسن","latitude": "34.6099481","longitude": "5.1214477" },
{"id": "239","post_code": "7010","name_fr": "Ech Chaiba","wilaya_id": "7","name_ar": "أولاد رحمة","latitude": "34.7833019","longitude": "5.0451784" },
{"id": "240","post_code": "7011","name_fr": "Sidi Okba","wilaya_id": "7","name_ar": "سيدي عقبة","latitude": "34.7505874","longitude": "5.9084077" },
{"id": "241","post_code": "7012","name_fr": "Mchouneche","wilaya_id": "7","name_ar": "مشونش","latitude": "34.9369672","longitude": "5.9900631" },
{"id": "242","post_code": "7013","name_fr": "El Haouch","wilaya_id": "7","name_ar": "الحوش","latitude": "34.5639418","longitude": "6.0461577" },
{"id": "243","post_code": "7014","name_fr": "Ain Naga","wilaya_id": "7","name_ar": "عين الناقة","latitude": "34.6830755","longitude": "6.208666" },
{"id": "244","post_code": "7015","name_fr": "Zeribet El Oued","wilaya_id": "7","name_ar": "زريبة الوادي","latitude": "34.6856169","longitude": "6.4934143" },
{"id": "245","post_code": "7016","name_fr": "El Feidh","wilaya_id": "7","name_ar": "الفيض","latitude": "34.5218243","longitude": "6.5226955" },
{"id": "246","post_code": "7017","name_fr": "El Kantara","wilaya_id": "7","name_ar": "القنطرة","latitude": "35.2180269","longitude": "5.7102465" },
{"id": "247","post_code": "7018","name_fr": "Ain Zaatout","wilaya_id": "7","name_ar": "عين زعطوط","latitude": "35.1463502","longitude": "5.8373156" },
{"id": "248","post_code": "7019","name_fr": "El Outaya","wilaya_id": "7","name_ar": "لوطاية","latitude": "35.0328011","longitude": "5.5871599" },
{"id": "249","post_code": "7020","name_fr": "Djemorah","wilaya_id": "7","name_ar": "جمورة","latitude": "35.0713021","longitude": "5.8458194" },
{"id": "250","post_code": "7021","name_fr": "Tolga","wilaya_id": "7","name_ar": "طولقة","latitude": "34.9346106","longitude": "5.1305127" },
{"id": "251","post_code": "7022","name_fr": "Lioua","wilaya_id": "7","name_ar": "لواء","latitude": "34.6383355","longitude": "5.3959082" },
{"id": "252","post_code": "7023","name_fr": "Lichana","wilaya_id": "7","name_ar": "لشانة","latitude": "34.7247292","longitude": "5.4325533" },
{"id": "253","post_code": "7024","name_fr": "Ourlal","wilaya_id": "7","name_ar": "أورلال","latitude": "34.655656","longitude": "5.5128952" },
{"id": "254","post_code": "7025","name_fr": "M'lili","wilaya_id": "7","name_ar": "مليلي","latitude": "34.6692207","longitude": "5.5639209" },
{"id": "255","post_code": "7026","name_fr": "Foughala","wilaya_id": "7","name_ar": "فوغالة","latitude": "34.728734","longitude": "5.3293513" },
{"id": "256","post_code": "7027","name_fr": "Bordj Ben Azzouz","wilaya_id": "7","name_ar": "برج بن عزوز","latitude": "34.7002579","longitude": "5.3588752" },
{"id": "257","post_code": "7028","name_fr": "M'ziraa","wilaya_id": "7","name_ar": "مزيرعة","latitude": "34.7211954","longitude": "6.2930853" },
{"id": "258","post_code": "7029","name_fr": "Bouchagroun","wilaya_id": "7","name_ar": "بوشقرون","latitude": "34.7245443","longitude": "5.4660322" },
{"id": "259","post_code": "7030","name_fr": "Mekhadma","wilaya_id": "7","name_ar": "مخادمة","latitude": "34.6518645","longitude": "5.4726548" },
{"id": "260","post_code": "7031","name_fr": "El Ghrous","wilaya_id": "7","name_ar": "الغروس","latitude": "34.720767","longitude": "5.2832817" },
{"id": "261","post_code": "7032","name_fr": "El Hadjab","wilaya_id": "7","name_ar": "الحاجب","latitude": "34.7909613","longitude": "5.5974291" },
{"id": "262","post_code": "7033","name_fr": "Khanguet Sidinadji","wilaya_id": "7","name_ar": "خنڨة سيدي ناجي","latitude": "34.8059135","longitude": "6.7068408" },
{"id": "263","post_code": "8001","name_fr": "Bechar","wilaya_id": "8","name_ar": "بشار","latitude": "31.6238098","longitude": "-2.2162443" },
{"id": "264","post_code": "8002","name_fr": "Erg Ferradj","wilaya_id": "8","name_ar": "عرق فراج","latitude": "31.0350443","longitude": "-2.7920175" },
{"id": "265","post_code": "8003","name_fr": "Ouled Khoudir","wilaya_id": "53","name_ar": "أولاد خدير","latitude": "29.6666791","longitude": "-1.8935135" },
{"id": "266","post_code": "8004","name_fr": "Meridja","wilaya_id": "8","name_ar": "مريجة","latitude": "31.548969","longitude": "-2.9460794" },
{"id": "267","post_code": "8005","name_fr": "Timoudi","wilaya_id": "8","name_ar": "تيمودى","latitude": "29.3663525","longitude": "-1.1736994" },
{"id": "268","post_code": "8006","name_fr": "Lahmar","wilaya_id": "8","name_ar": "لحمر","latitude": "31.9317055","longitude": "-2.2583136" },
{"id": "269","post_code": "8007","name_fr": "Beni Abbes","wilaya_id": "53","name_ar": "بني عباس","latitude": "30.1312217","longitude": "-2.1662258" },
{"id": "270","post_code": "8008","name_fr": "Beni Ikhlef","wilaya_id": "8","name_ar": "بني يخلف","latitude": "29.5757862","longitude": "-1.6058117" },
{"id": "271","post_code": "8009","name_fr": "Mechraa Houari Boumedienne","wilaya_id": "8","name_ar": "مشرع ھوارى بومدين","latitude": "30.9322468","longitude": "-2.7375454" },
{"id": "272","post_code": "8010","name_fr": "Kenedsa","wilaya_id": "8","name_ar": "القنادسة","latitude": "31.5548978","longitude": "-2.4256529" },
{"id": "273","post_code": "8011","name_fr": "Igli","wilaya_id": "53","name_ar": "إقلي","latitude": "30.4782136","longitude": "-3.1453418" },
{"id": "274","post_code": "8012","name_fr": "Tabalbala","wilaya_id": "8","name_ar": "تبلبالة","latitude": "29.4069405","longitude": "-3.257159" },
{"id": "275","post_code": "8013","name_fr": "Taghit","wilaya_id": "8","name_ar": "تــــاغـيــث","latitude": "30.8792156","longitude": "-2.0103649" },
{"id": "276","post_code": "8014","name_fr": "El Ouata","wilaya_id": "53","name_ar": "الوطى","latitude": "29.858882","longitude": "-1.8371216" },
{"id": "277","post_code": "8015","name_fr": "Boukais","wilaya_id": "8","name_ar": "بوكايس","latitude": "32.0665645","longitude": "-2.4899726" },
{"id": "278","post_code": "8016","name_fr": "Mogheul","wilaya_id": "8","name_ar": "موغل","latitude": "32.0216238","longitude": "-2.2193926" },
{"id": "279","post_code": "8017","name_fr": "Abadla","wilaya_id": "8","name_ar": "العبادلة","latitude": "31.0023101","longitude": "-2.7458681" },
{"id": "280","post_code": "8018","name_fr": "Kerzaz","wilaya_id": "53","name_ar": "كرزاز","latitude": "30.1312217","longitude": "-2.1662258" },
{"id": "281","post_code": "8019","name_fr": "Ksabi","wilaya_id": "8","name_ar": "قصابى","latitude": "29.1025574","longitude": "-0.9716777" },
{"id": "282","post_code": "8020","name_fr": "Tamtert","wilaya_id": "8","name_ar": "تامترت","latitude": "29.9096238","longitude": "-1.8883921" },
{"id": "283","post_code": "8021","name_fr": "Beni Ounif","wilaya_id": "8","name_ar": "بني ونيف","latitude": "31.2829035","longitude": "-0.6932948" },
{"id": "284","post_code": "9001","name_fr": "Blida","wilaya_id": "9","name_ar": "البليدة‎","latitude": "36.4735715","longitude": "2.8323153" },
{"id": "285","post_code": "9002","name_fr": "Chebli","wilaya_id": "9","name_ar": "الشبلي","latitude": "36.5773823","longitude": "3.009176" },
{"id": "286","post_code": "9003","name_fr": "Bouinan","wilaya_id": "9","name_ar": "بوعينان","latitude": "36.5324276","longitude": "2.9939684" },
{"id": "287","post_code": "9004","name_fr": "Oued El Alleug","wilaya_id": "9","name_ar": "واد العلايڨ","latitude": "36.5558964","longitude": "2.7896308" },
{"id": "288","post_code": "9007","name_fr": "Ouled Yaich","wilaya_id": "9","name_ar": "اولاد يعيش","latitude": "36.4941553","longitude": "2.862698" },
{"id": "289","post_code": "9008","name_fr": "Chrea","wilaya_id": "9","name_ar": "الشريعة","latitude": "36.42676","longitude": "2.8765378" },
{"id": "290","post_code": "9010","name_fr": "El Affroun","wilaya_id": "9","name_ar": "العفرون","latitude": "36.4701592","longitude": "2.625741" },
{"id": "291","post_code": "9011","name_fr": "Chiffa","wilaya_id": "9","name_ar": "الشفة","latitude": "36.4624901","longitude": "2.7410554" },
{"id": "292","post_code": "9012","name_fr": "Hammam Melouane","wilaya_id": "9","name_ar": "حمام ملوان","latitude": "36.4871168","longitude": "3.044019" },
{"id": "293","post_code": "9013","name_fr": "Ben Khlil","wilaya_id": "9","name_ar": "بني خليل","latitude": "36.6204108","longitude": "2.8766158" },
{"id": "294","post_code": "9014","name_fr": "Soumaa","wilaya_id": "9","name_ar": "صومعة","latitude": "36.5188388","longitude": "2.9077851" },
{"id": "295","post_code": "9016","name_fr": "Mouzaia","wilaya_id": "9","name_ar": "موزاية","latitude": "36.4669121","longitude": "2.6898596" },
{"id": "296","post_code": "9017","name_fr": "Souhane","wilaya_id": "9","name_ar": "صوحان","latitude": "36.5074143","longitude": "3.2377667" },
{"id": "297","post_code": "9018","name_fr": "Meftah","wilaya_id": "9","name_ar": "مفتاح","latitude": "36.6223869","longitude": "3.2261299" },
{"id": "298","post_code": "9019","name_fr": "Ouled Selama","wilaya_id": "9","name_ar": "أولاد سلامة","latitude": "36.5527058","longitude": "3.1086679" },
{"id": "299","post_code": "9020","name_fr": "Boufarik","wilaya_id": "9","name_ar": "بوفاريك","latitude": "36.5832413","longitude": "2.9121256" },
{"id": "300","post_code": "9021","name_fr": "Larbaa","wilaya_id": "9","name_ar": "الاربعاء","latitude": "36.5651532","longitude": "3.1539961" },
{"id": "301","post_code": "9022","name_fr": "Oued Djer","wilaya_id": "9","name_ar": "واد جر","latitude": "36.4264824","longitude": "2.5610061" },
{"id": "302","post_code": "9023","name_fr": "Beni Tamou","wilaya_id": "9","name_ar": "بني تامو","latitude": "36.5342197","longitude": "2.8211949" },
{"id": "303","post_code": "9024","name_fr": "Bouarfa","wilaya_id": "9","name_ar": "بوعرفة","latitude": "36.4666445","longitude": "2.8159522" },
{"id": "304","post_code": "9025","name_fr": "Beni Mered","wilaya_id": "9","name_ar": "بني مراد","latitude": "36.5207695","longitude": "2.8602746" },
{"id": "305","post_code": "9026","name_fr": "Bougara","wilaya_id": "9","name_ar": "بوڨرة","latitude": "36.5419269","longitude": "3.0828449" },
{"id": "306","post_code": "9027","name_fr": "Guerrouaou","wilaya_id": "9","name_ar": "ڨرواو","latitude": "36.5259331","longitude": "2.8817981" },
{"id": "307","post_code": "9028","name_fr": "Ain Romana","wilaya_id": "9","name_ar": "عين الرمانة","latitude": "36.4291807","longitude": "2.6943171" },
{"id": "308","post_code": "9029","name_fr": "Djebabra","wilaya_id": "9","name_ar": "جبابرة","latitude": "36.5818683","longitude": "3.2654243" },
{"id": "309","post_code": "10001","name_fr": "Bouira","wilaya_id": "10","name_ar": "البويرة","latitude": "36.3691846","longitude": "3.9006194" },
{"id": "310","post_code": "10002","name_fr": "El Asnam","wilaya_id": "10","name_ar": "الأصنام","latitude": "36.3229465","longitude": "4.0085527" },
{"id": "311","post_code": "10003","name_fr": "Guerrouma","wilaya_id": "10","name_ar": "قرومة","latitude": "36.4848832","longitude": "3.4519892" },
{"id": "312","post_code": "10004","name_fr": "Souk El Khemis","wilaya_id": "10","name_ar": "سوق الخميس","latitude": "36.3851098","longitude": "3.6368758" },
{"id": "313","post_code": "10005","name_fr": "Kadiria","wilaya_id": "10","name_ar": "قادرية","latitude": "36.5340081","longitude": "3.683037" },
{"id": "314","post_code": "10006","name_fr": "Hanif","wilaya_id": "10","name_ar": "احنيف","latitude": "36.33753","longitude": "4.2687136" },
{"id": "315","post_code": "10007","name_fr": "Dirah","wilaya_id": "10","name_ar": "ديــرة","latitude": "36.003186","longitude": "3.755143" },
{"id": "316","post_code": "10008","name_fr": "Ait Laaziz","wilaya_id": "10","name_ar": "آيت لعزيز","latitude": "36.4518196","longitude": "3.8704799" },
{"id": "317","post_code": "10009","name_fr": "Taghzout","wilaya_id": "10","name_ar": "تاغزوت","latitude": "36.4175741","longitude": "3.9633167" },
{"id": "318","post_code": "10010","name_fr": "Raouraoua","wilaya_id": "10","name_ar": "الروراوة","latitude": "36.2134944","longitude": "3.6386144" },
{"id": "319","post_code": "10011","name_fr": "Mezdour","wilaya_id": "10","name_ar": "مسدور","latitude": "36.0816969","longitude": "4.0705847" },
{"id": "320","post_code": "10012","name_fr": "Haizer","wilaya_id": "10","name_ar": "حيزر","latitude": "36.3964638","longitude": "4.0002081" },
{"id": "321","post_code": "10013","name_fr": "Lakhdaria","wilaya_id": "10","name_ar": "الأخضرية","latitude": "36.5660649","longitude": "3.5960213" },
{"id": "322","post_code": "10014","name_fr": "Maala","wilaya_id": "10","name_ar": "معالة","latitude": "36.4396037","longitude": "3.8678345" },
{"id": "323","post_code": "10015","name_fr": "El Hachimia","wilaya_id": "10","name_ar": "الھاشمية","latitude": "36.2194454","longitude": "3.8157329" },
{"id": "324","post_code": "10016","name_fr": "Aomar","wilaya_id": "10","name_ar": "أعمر","latitude": "36.4917719","longitude": "3.7684225" },
{"id": "325","post_code": "10017","name_fr": "Chorfa","wilaya_id": "10","name_ar": "الشرفاء","latitude": "36.3605515","longitude": "4.3290338" },
{"id": "326","post_code": "10018","name_fr": "Bordj Oukhriss","wilaya_id": "10","name_ar": "برج أوخريص","latitude": "36.0838793","longitude": "3.9759645" },
{"id": "327","post_code": "10019","name_fr": "El Adjiba","wilaya_id": "10","name_ar": "العجيبة","latitude": "36.3283648","longitude": "4.1586734" },
{"id": "328","post_code": "10020","name_fr": "El Hakimia","wilaya_id": "10","name_ar": "الحاكمية","latitude": "36.0905924","longitude": "3.7807202" },
{"id": "329","post_code": "10021","name_fr": "El Khebouzia","wilaya_id": "10","name_ar": "الخبوزية","latitude": "36.3164029","longitude": "3.600835" },
{"id": "330","post_code": "10022","name_fr": "Ahl El Ksar","wilaya_id": "10","name_ar": "أھل القصر","latitude": "36.2491646","longitude": "4.0433254" },
{"id": "331","post_code": "10023","name_fr": "Bouderbala","wilaya_id": "10","name_ar": "بودربالة","latitude": "36.566251","longitude": "3.4844075" },
{"id": "332","post_code": "10024","name_fr": "Zbarbar","wilaya_id": "10","name_ar": "زبربر","latitude": "36.4847586","longitude": "3.5254479" },
{"id": "333","post_code": "10025","name_fr": "Ain El Hadjar","wilaya_id": "10","name_ar": "عين الحجر","latitude": "36.3395149","longitude": "3.8099532" },
{"id": "334","post_code": "10026","name_fr": "Djebahia","wilaya_id": "10","name_ar": "الجباحية","latitude": "36.4773442","longitude": "3.7585198" },
{"id": "335","post_code": "10027","name_fr": "Aghbalou","wilaya_id": "10","name_ar": "أغبالو","latitude": "36.4183016","longitude": "4.3388777" },
{"id": "336","post_code": "10028","name_fr": "Taguedit","wilaya_id": "10","name_ar": "تاڨديت","latitude": "36.0191188","longitude": "3.9921067" },
{"id": "337","post_code": "10029","name_fr": "Ain Turk","wilaya_id": "10","name_ar": "عين الترك","latitude": "36.4160818","longitude": "3.8022803" },
{"id": "338","post_code": "10030","name_fr": "Saharidj","wilaya_id": "10","name_ar": "الصهاريج","latitude": "36.3965385","longitude": "4.2488372" },
{"id": "339","post_code": "10031","name_fr": "Dechmia","wilaya_id": "10","name_ar": "الدشمية","latitude": "36.1305957","longitude": "3.5761549" },
{"id": "340","post_code": "10032","name_fr": "Ridane","wilaya_id": "10","name_ar": "ريدان","latitude": "36.0781297","longitude": "3.4898299" },
{"id": "341","post_code": "10033","name_fr": "Bechloul","wilaya_id": "10","name_ar": "بشلول","latitude": "36.3121044","longitude": "4.0749862" },
{"id": "342","post_code": "10034","name_fr": "Boukram","wilaya_id": "10","name_ar": "بوكرام","latitude": "36.5437378","longitude": "3.3944221" },
{"id": "343","post_code": "10035","name_fr": "Ain Bessam","wilaya_id": "10","name_ar": "عين بسام","latitude": "36.3337514","longitude": "3.687402" },
{"id": "344","post_code": "10036","name_fr": "Bir Ghbalou","wilaya_id": "10","name_ar": "بئر غبالو","latitude": "36.2635857","longitude": "3.5870031" },
{"id": "345","post_code": "10037","name_fr": "Mchedallah","wilaya_id": "10","name_ar": "مشدا الله","latitude": "36.364496","longitude": "4.2696806" },
{"id": "346","post_code": "10038","name_fr": "Sour El Ghozlane","wilaya_id": "10","name_ar": "سور الغزلان","latitude": "36.1508804","longitude": "3.7074189" },
{"id": "347","post_code": "10039","name_fr": "Maamora","wilaya_id": "10","name_ar": "المعمورة","latitude": "36.0335221","longitude": "3.551315" },
{"id": "348","post_code": "10040","name_fr": "Ouled Rached","wilaya_id": "10","name_ar": "أولاد راشد","latitude": "36.1838185","longitude": "4.1014815" },
{"id": "349","post_code": "10041","name_fr": "Ain Laloui","wilaya_id": "10","name_ar": "عين العلوي","latitude": "36.3217343","longitude": "3.7483092" },
{"id": "350","post_code": "10042","name_fr": "Hadjera Zerga","wilaya_id": "10","name_ar": "الحجرة الزرقاء","latitude": "35.9567791","longitude": "3.8495424" },
{"id": "351","post_code": "10043","name_fr": "Ath Mansour","wilaya_id": "10","name_ar": "آث منصور","latitude": "36.329059","longitude": "4.3254619" },
{"id": "352","post_code": "10044","name_fr": "El Mokrani","wilaya_id": "10","name_ar": "المقراني","latitude": "36.4251606","longitude": "3.6099903" },
{"id": "353","post_code": "10045","name_fr": "Oued El Berdi","wilaya_id": "10","name_ar": "وادى البردي","latitude": "36.2891863","longitude": "3.9178297" },
{"id": "354","post_code": "11001","name_fr": "Tamanghasset","wilaya_id": "11","name_ar": "تمنراست","latitude": "22.7902972","longitude": "5.5193268" },
{"id": "355","post_code": "11002","name_fr": "Abalessa","wilaya_id": "11","name_ar": "أبلسة","latitude": "22.8897873","longitude": "4.8477255" },
{"id": "356","post_code": "11003","name_fr": "In Ghar","wilaya_id": "57","name_ar": "عـيـن غــار","latitude": "27.1030589","longitude": "1.9041215" },
{"id": "357","post_code": "11004","name_fr": "In Guezzam","wilaya_id": "58","name_ar": "عين قزام","latitude": "19.5632255","longitude": "5.7717952" },
{"id": "358","post_code": "11005","name_fr": "Idles","wilaya_id": "11","name_ar": "إدلس","latitude": "23.8173973","longitude": "5.9343664" },
{"id": "359","post_code": "11006","name_fr": "Tazouk","wilaya_id": "11","name_ar": "تاظروك","latitude": "22.7902972","longitude": "5.5193268" },
{"id": "360","post_code": "11007","name_fr": "Tin Zaouatine","wilaya_id": "58","name_ar": "تين زاوتين","latitude": "20.4333384","longitude": "2.0988641" },
{"id": "361","post_code": "11008","name_fr": "In Salah","wilaya_id": "57","name_ar": "عين صالح","latitude": "27.2026311","longitude": "2.4878487" },
{"id": "362","post_code": "11009","name_fr": "In Amguel","wilaya_id": "11","name_ar": "ان أمقل","latitude": "24.9368049","longitude": "4.0341502" },
{"id": "363","post_code": "11010","name_fr": "Foggaret Ezzaouia","wilaya_id": "57","name_ar": "فقارة الزوى","latitude": "27.3611821","longitude": "2.8476212" },
{"id": "364","post_code": "12001","name_fr": "Tebessa","wilaya_id": "12","name_ar": "تبسة","latitude": "35.4010797","longitude": "8.1172958" },
{"id": "365","post_code": "12002","name_fr": "Bir El Ater","wilaya_id": "12","name_ar": "بئر العاتر","latitude": "34.749839","longitude": "8.0577526" },
{"id": "366","post_code": "12003","name_fr": "Cheria","wilaya_id": "12","name_ar": "الــشــريــعـة","latitude": "35.2709501","longitude": "7.7512926" },
{"id": "367","post_code": "12004","name_fr": "Stah Guentis","wilaya_id": "12","name_ar": "سطح قنطيس","latitude": "34.9996505","longitude": "7.3073018" },
{"id": "368","post_code": "12005","name_fr": "El Aouinet","wilaya_id": "12","name_ar": "العوينات","latitude": "35.8680504","longitude": "7.8861697" },
{"id": "369","post_code": "12006","name_fr": "Lahouidjbet","wilaya_id": "12","name_ar": "الحويجبات","latitude": "35.2925897","longitude": "8.2803667" },
{"id": "370","post_code": "12007","name_fr": "Safsaf El Ouesra","wilaya_id": "12","name_ar": "صفصاف الوسرة","latitude": "34.955858","longitude": "8.2078188" },
{"id": "371","post_code": "12008","name_fr": "Hammamet","wilaya_id": "12","name_ar": "الحمامات","latitude": "35.4491906","longitude": "7.9502777" },
{"id": "372","post_code": "12009","name_fr": "Negrine","wilaya_id": "12","name_ar": "نقرين","latitude": "34.4847799","longitude": "7.5204106" },
{"id": "373","post_code": "12010","name_fr": "Bir El Mokadem","wilaya_id": "12","name_ar": "بــئــر مــقـدم","latitude": "35.3725559","longitude": "7.8055017" },
{"id": "374","post_code": "12011","name_fr": "El Kouif","wilaya_id": "12","name_ar": "الكويف","latitude": "35.4808098","longitude": "8.2431747" },
{"id": "375","post_code": "12012","name_fr": "Morsott","wilaya_id": "12","name_ar": "مرسط","latitude": "35.6675406","longitude": "8.0113322" },
{"id": "376","post_code": "12013","name_fr": "El Ogla","wilaya_id": "12","name_ar": "العقلة","latitude": "35.1885063","longitude": "7.4649189" },
{"id": "377","post_code": "12014","name_fr": "Bir Dheb","wilaya_id": "12","name_ar": "بٔير الذھب","latitude": "35.5249391","longitude": "7.9378539" },
{"id": "378","post_code": "12015","name_fr": "El Ogla","wilaya_id": "12","name_ar": "العقلة","latitude": "35.1885063","longitude": "7.4649189" },
{"id": "379","post_code": "12016","name_fr": "Gorriguer","wilaya_id": "12","name_ar": "قوريقر","latitude": "35.1290691","longitude": "7.9592863" },
{"id": "380","post_code": "12017","name_fr": "Bekkaria","wilaya_id": "12","name_ar": "بكارية","latitude": "35.3737383","longitude": "8.2421368" },
{"id": "381","post_code": "12018","name_fr": "Boukhadra","wilaya_id": "12","name_ar": "بوخضرة","latitude": "35.8018236","longitude": "8.056682" },
{"id": "382","post_code": "12019","name_fr": "Ouenza","wilaya_id": "12","name_ar": "الونزة","latitude": "35.9518347","longitude": "8.1325283" },
{"id": "383","post_code": "12020","name_fr": "El Ma El Biodh","wilaya_id": "12","name_ar": "الماء الأبيض","latitude": "35.2688608","longitude": "8.1557066" },
{"id": "384","post_code": "12021","name_fr": "Oum Ali","wilaya_id": "12","name_ar": "أم على","latitude": "35.0098182","longitude": "8.3024291" },
{"id": "385","post_code": "12022","name_fr": "Tlidjene","wilaya_id": "12","name_ar": "ثليجان","latitude": "35.1186213","longitude": "7.7678452" },
{"id": "386","post_code": "12023","name_fr": "Ain Zerga","wilaya_id": "12","name_ar": "عين الزرقاء","latitude": "35.6484993","longitude": "8.2589323" },
{"id": "387","post_code": "12024","name_fr": "El Meridj","wilaya_id": "12","name_ar": "المريج","latitude": "35.7962064","longitude": "8.2299318" },
{"id": "388","post_code": "12025","name_fr": "Boulhaf Dyr","wilaya_id": "12","name_ar": "بولحاف الدير","latitude": "35.4886531","longitude": "8.0781318" },
{"id": "389","post_code": "12026","name_fr": "Bedjene","wilaya_id": "12","name_ar": "بجن","latitude": "35.3497439","longitude": "7.4739369" },
{"id": "390","post_code": "12027","name_fr": "El Mazeraa","wilaya_id": "12","name_ar": "المزرعة","latitude": "35.1680556","longitude": "7.6413889" },
{"id": "391","post_code": "12028","name_fr": "Ferkane","wilaya_id": "12","name_ar": "فـــــــركـــــان","latitude": "34.5551373","longitude": "7.41152" },
{"id": "392","post_code": "13001","name_fr": "Tlemcen","wilaya_id": "13","name_ar": "تلمسان","latitude": "34.8828864","longitude": "-1.3166815" },
{"id": "393","post_code": "13002","name_fr": "Beni Mester","wilaya_id": "13","name_ar": "بني مستار","latitude": "34.8663027","longitude": "-1.4214462" },
{"id": "394","post_code": "13003","name_fr": "Ain Tallout","wilaya_id": "13","name_ar": "عين تالوت","latitude": "34.9269129","longitude": "-0.9631535" },
{"id": "395","post_code": "13004","name_fr": "Remchi","wilaya_id": "13","name_ar": "الرمشي","latitude": "35.064069","longitude": "-1.42638" },
{"id": "396","post_code": "13005","name_fr": "El Fehoul","wilaya_id": "13","name_ar": "الفحول","latitude": "35.1178444","longitude": "-1.2907262" },
{"id": "397","post_code": "13006","name_fr": "Sabra","wilaya_id": "13","name_ar": "صبرة","latitude": "34.8279025","longitude": "-1.5291653" },
{"id": "398","post_code": "13007","name_fr": "Ghazaouet","wilaya_id": "13","name_ar": "الغزوات","latitude": "35.0936543","longitude": "-1.861861" },
{"id": "399","post_code": "13008","name_fr": "Souani","wilaya_id": "13","name_ar": "السواني","latitude": "34.9209267","longitude": "-1.9139087" },
{"id": "400","post_code": "13009","name_fr": "Djebala","wilaya_id": "13","name_ar": "جبالة","latitude": "34.9743465","longitude": "-1.79276" },
{"id": "401","post_code": "13010","name_fr": "El Gor","wilaya_id": "13","name_ar": "الغور","latitude": "34.6378873","longitude": "-1.1569638" },
{"id": "402","post_code": "13011","name_fr": "Oued Chouly","wilaya_id": "13","name_ar": "وادى الشولى","latitude": "34.8352125","longitude": "-1.1790036" },
{"id": "403","post_code": "13012","name_fr": "Ain Fezza","wilaya_id": "13","name_ar": "عين فزّة","latitude": "34.8787718","longitude": "-1.2357007" },
{"id": "404","post_code": "13013","name_fr": "Ouled Mimoun","wilaya_id": "13","name_ar": "أولاد ميمون","latitude": "34.9044116","longitude": "-1.0342358" },
{"id": "405","post_code": "13014","name_fr": "Amieur","wilaya_id": "13","name_ar": "عمير","latitude": "35.0308192","longitude": "-1.2392764" },
{"id": "406","post_code": "13015","name_fr": "Ain Youcef","wilaya_id": "13","name_ar": "عين يوسف","latitude": "35.0483817","longitude": "-1.3755906" },
{"id": "407","post_code": "13016","name_fr": "Zenata","wilaya_id": "13","name_ar": "زناتة","latitude": "34.9846437","longitude": "-1.4591782" },
{"id": "408","post_code": "13017","name_fr": "Beni Snous","wilaya_id": "13","name_ar": "بنى سنوس","latitude": "34.6633685","longitude": "-1.5394825" },
{"id": "409","post_code": "13018","name_fr": "Bab El Assa","wilaya_id": "13","name_ar": "باب العسة","latitude": "34.9651957","longitude": "-2.0312446" },
{"id": "410","post_code": "13019","name_fr": "Dar Yaghmouracene","wilaya_id": "13","name_ar": "دار يغمراسن","latitude": "35.1004784","longitude": "-1.8005732" },
{"id": "411","post_code": "13020","name_fr": "Fellaoucene","wilaya_id": "13","name_ar": "فلاوسن","latitude": "35.0348444","longitude": "-1.599145" },
{"id": "412","post_code": "13021","name_fr": "Azails","wilaya_id": "13","name_ar": "العزايل","latitude": "34.6805994","longitude": "-1.4764836" },
{"id": "413","post_code": "13022","name_fr": "Sebbaa Chioukh","wilaya_id": "13","name_ar": "سبعة شيوخ","latitude": "35.1550716","longitude": "-1.3575679" },
{"id": "414","post_code": "13023","name_fr": "Terni Beni Hediel","wilaya_id": "13","name_ar": "تيرني بني هديل","latitude": "34.795302","longitude": "-1.3545685" },
{"id": "415","post_code": "13024","name_fr": "Bensekrane","wilaya_id": "13","name_ar": "بن سكران","latitude": "35.0718762","longitude": "-1.2281733" },
{"id": "416","post_code": "13025","name_fr": "Ain Nehala","wilaya_id": "13","name_ar": "عين نحالة","latitude": "35.0276866","longitude": "-0.9313136" },
{"id": "417","post_code": "13026","name_fr": "Hennaya","wilaya_id": "13","name_ar": "الحناية","latitude": "34.9523096","longitude": "-1.3723652" },
{"id": "418","post_code": "13027","name_fr": "Maghnia","wilaya_id": "13","name_ar": "مغنية","latitude": "34.8486597","longitude": "-1.7293536" },
{"id": "419","post_code": "13028","name_fr": "Hammam Boughrara","wilaya_id": "13","name_ar": "حمام بوغرارة","latitude": "34.8915202","longitude": "-1.6461054" },
{"id": "420","post_code": "13029","name_fr": "Souahlia","wilaya_id": "13","name_ar": "تونان","latitude": "35.0408664","longitude": "-1.8912952" },
{"id": "421","post_code": "13030","name_fr": "Msirda Fouaga","wilaya_id": "13","name_ar": "مسيردة الفواقة","latitude": "35.0139805","longitude": "-2.0588548" },
{"id": "422","post_code": "13031","name_fr": "Ain Fetah","wilaya_id": "13","name_ar": "عين فتاح","latitude": "34.9658939","longitude": "-1.6378865" },
{"id": "423","post_code": "13032","name_fr": "El Aricha","wilaya_id": "13","name_ar": "العريشة","latitude": "34.481044","longitude": "-1.2647729" },
{"id": "424","post_code": "13033","name_fr": "Souk Thlata","wilaya_id": "13","name_ar": "سوق الثلاثاء","latitude": "35.0229771","longitude": "-1.9982489" },
{"id": "425","post_code": "13034","name_fr": "Sidi Abdelli","wilaya_id": "13","name_ar": "سيدي العبدلي","latitude": "35.0609205","longitude": "-1.1318933" },
{"id": "426","post_code": "13035","name_fr": "Sebdou","wilaya_id": "13","name_ar": "سبدو","latitude": "34.6376648","longitude": "-1.3329676" },
{"id": "427","post_code": "13036","name_fr": "Beni Ouarsous","wilaya_id": "13","name_ar": "برج عريمة","latitude": "35.0833827","longitude": "-1.5576176" },
{"id": "428","post_code": "13037","name_fr": "Sidi Medjahed","wilaya_id": "13","name_ar": "سيدي مجاهد","latitude": "34.7738194","longitude": "-1.6671931" },
{"id": "429","post_code": "13038","name_fr": "Beni Boussaid","wilaya_id": "13","name_ar": "بني بوسعيد","latitude": "34.648701","longitude": "-1.7530412" },
{"id": "430","post_code": "13039","name_fr": "Marsa Ben Mhidi","wilaya_id": "13","name_ar": "مرسى بن مھيدي","latitude": "35.0531381","longitude": "-2.1352039" },
{"id": "431","post_code": "13040","name_fr": "Nedroma","wilaya_id": "13","name_ar": "ندرومة","latitude": "35.0292918","longitude": "-1.7666936" },
{"id": "432","post_code": "13041","name_fr": "Sidi Djillali","wilaya_id": "13","name_ar": "سيدي الجيلالي","latitude": "34.4471071","longitude": "-1.5689859" },
{"id": "433","post_code": "13042","name_fr": "Beni Bahdel","wilaya_id": "13","name_ar": "بني بهدل","latitude": "34.6928839","longitude": "-1.5204114" },
{"id": "434","post_code": "13043","name_fr": "El Bouihi","wilaya_id": "13","name_ar": "البويھي","latitude": "34.4151476","longitude": "-1.6878383" },
{"id": "435","post_code": "13044","name_fr": "Honaine","wilaya_id": "13","name_ar": "هنين","latitude": "35.1541131","longitude": "-1.6732305" },
{"id": "436","post_code": "13045","name_fr": "Tianet","wilaya_id": "13","name_ar": "تيانت","latitude": "35.0508514","longitude": "-1.8386544" },
{"id": "437","post_code": "13046","name_fr": "Ouled Riyah","wilaya_id": "13","name_ar": "أولاد رياح","latitude": "34.9603845","longitude": "-1.4978921" },
{"id": "438","post_code": "13047","name_fr": "Bouhlou","wilaya_id": "13","name_ar": "بوحلو","latitude": "34.7788216","longitude": "-1.5781517" },
{"id": "439","post_code": "13048","name_fr": "Souk El Khemis","wilaya_id": "13","name_ar": "سوق الخميس","latitude": "35.1725367","longitude": "-1.5573058" },
{"id": "440","post_code": "13049","name_fr": "Ain Ghoraba","wilaya_id": "13","name_ar": "عين غرابة","latitude": "34.7167337","longitude": "-1.3899184" },
{"id": "441","post_code": "13050","name_fr": "Chetouane","wilaya_id": "13","name_ar": "شتوان","latitude": "34.9239124","longitude": "-1.299604" },
{"id": "442","post_code": "13051","name_fr": "Mansourah","wilaya_id": "50","name_ar": "المنصورة","latitude": "32.0237328","longitude": "2.7801493" },
{"id": "443","post_code": "13052","name_fr": "Beni Semiel","wilaya_id": "13","name_ar": "بني مستار","latitude": "34.8184397","longitude": "-1.0261322" },
{"id": "444","post_code": "13053","name_fr": "Ain Kebira","wilaya_id": "13","name_ar": "عين الكبيرة","latitude": "35.030692","longitude": "-1.6762355" },
{"id": "445","post_code": "14001","name_fr": "Tiaret","wilaya_id": "14","name_ar": "تيارت‎","latitude": "35.3708689","longitude": "1.3217852" },
{"id": "446","post_code": "14002","name_fr": "Medroussa","wilaya_id": "14","name_ar": "مدروسة","latitude": "35.1887081","longitude": "1.1499115" },
{"id": "447","post_code": "14003","name_fr": "Ain Bouchekif","wilaya_id": "14","name_ar": "بوشقيف","latitude": "35.356054","longitude": "1.5084455" },
{"id": "448","post_code": "14004","name_fr": "Sidi Ali Mellal","wilaya_id": "14","name_ar": "سيدي علي ملال","latitude": "35.5645433","longitude": "1.2252035" },
{"id": "449","post_code": "14005","name_fr": "Ain Zarit","wilaya_id": "14","name_ar": "عين زاريت","latitude": "35.353239","longitude": "1.6693428" },
{"id": "450","post_code": "14006","name_fr": "Ain Deheb","wilaya_id": "14","name_ar": "عين الذهب","latitude": "34.8471273","longitude": "1.5450766" },
{"id": "451","post_code": "14007","name_fr": "Sidi Bakhti","wilaya_id": "14","name_ar": "سيدي بختي","latitude": "35.2416604","longitude": "0.9783598" },
{"id": "452","post_code": "14008","name_fr": "Medrissa","wilaya_id": "14","name_ar": "مدريسة","latitude": "34.8950359","longitude": "1.2474324" },
{"id": "453","post_code": "14009","name_fr": "Zmalet El Emir Aek","wilaya_id": "14","name_ar": "زمالة الأمير عبد القادر","latitude": "34.8968001","longitude": "2.309013" },
{"id": "454","post_code": "14010","name_fr": "Madna","wilaya_id": "14","name_ar": "مادنة","latitude": "34.7550279","longitude": "0.9836917" },
{"id": "455","post_code": "14011","name_fr": "Sebt","wilaya_id": "14","name_ar": "السبت","latitude": "35.6195312","longitude": "1.3514695" },
{"id": "456","post_code": "14012","name_fr": "Mellakou","wilaya_id": "14","name_ar": "ملاكو","latitude": "35.2532242","longitude": "1.2350012" },
{"id": "457","post_code": "14013","name_fr": "Dahmouni","wilaya_id": "14","name_ar": "دحموني","latitude": "35.416323","longitude": "1.4265613" },
{"id": "458","post_code": "14014","name_fr": "Rahouia","wilaya_id": "14","name_ar": "رحوية","latitude": "35.5370982","longitude": "1.0264196" },
{"id": "459","post_code": "14015","name_fr": "Mahdia","wilaya_id": "14","name_ar": "المھدية","latitude": "35.4297524","longitude": "1.7551423" },
{"id": "460","post_code": "14016","name_fr": "Sougueur","wilaya_id": "14","name_ar": "سوقر","latitude": "35.1857422","longitude": "1.4935025" },
{"id": "461","post_code": "14017","name_fr": "Sidi Abdelghani","wilaya_id": "14","name_ar": "سيدي عبد الغنى","latitude": "35.2305796","longitude": "1.6338006" },
{"id": "462","post_code": "14018","name_fr": "Ain El Hadid","wilaya_id": "14","name_ar": "عين الحديد","latitude": "35.0578298","longitude": "0.88945" },
{"id": "463","post_code": "14019","name_fr": "Ouled Djerad","wilaya_id": "14","name_ar": "اولاد جراد","latitude": "35.3708689","longitude": "1.3217852" },
{"id": "464","post_code": "14020","name_fr": "Naima","wilaya_id": "14","name_ar": "نعيمة","latitude": "35.0479413","longitude": "1.4891561" },
{"id": "465","post_code": "14021","name_fr": "Meghila","wilaya_id": "14","name_ar": "مغيلة","latitude": "35.5971311","longitude": "1.4173924" },
{"id": "466","post_code": "14022","name_fr": "Guertoufa","wilaya_id": "14","name_ar": "قرطوفة","latitude": "35.3909357","longitude": "1.2551241" },
{"id": "467","post_code": "14023","name_fr": "Sidi Hosni","wilaya_id": "14","name_ar": "سيدي حسني","latitude": "35.4718589","longitude": "1.5199592" },
{"id": "468","post_code": "14024","name_fr": "Djillali Ben Amar","wilaya_id": "14","name_ar": "جيلالي بن عمار","latitude": "35.4308713","longitude": "0.8711096" },
{"id": "469","post_code": "14025","name_fr": "Sebaine","wilaya_id": "14","name_ar": "سبعين","latitude": "35.4566659","longitude": "1.60367" },
{"id": "470","post_code": "14026","name_fr": "Tousnina","wilaya_id": "14","name_ar": "توسنينة","latitude": "35.1152302","longitude": "1.3103774" },
{"id": "471","post_code": "14027","name_fr": "Frenda","wilaya_id": "14","name_ar": "فرندة","latitude": "35.0638421","longitude": "1.0572065" },
{"id": "472","post_code": "14028","name_fr": "Ain Kermes","wilaya_id": "14","name_ar": "عين كرمس","latitude": "34.9085772","longitude": "1.1093273" },
{"id": "473","post_code": "14029","name_fr": "Ksar Chellala","wilaya_id": "14","name_ar": "قصر الشلالة","latitude": "35.2181066","longitude": "2.3153581" },
{"id": "474","post_code": "14030","name_fr": "Rechaiga","wilaya_id": "14","name_ar": "الرشايقة","latitude": "35.4076398","longitude": "1.9715727" },
{"id": "475","post_code": "14031","name_fr": "Nadorah","wilaya_id": "14","name_ar": "ملاكو","latitude": "35.2913156","longitude": "1.8866706" },
{"id": "476","post_code": "14032","name_fr": "Tagdemt","wilaya_id": "14","name_ar": "تاقدمت","latitude": "35.3349669","longitude": "1.2292007" },
{"id": "477","post_code": "14033","name_fr": "Oued Lilli","wilaya_id": "14","name_ar": "وادى ليلى","latitude": "35.5120797","longitude": "1.2704293" },
{"id": "478","post_code": "14034","name_fr": "Mechraa Safa","wilaya_id": "14","name_ar": "مشرع الصفاء","latitude": "35.3843268","longitude": "1.0553415" },
{"id": "479","post_code": "14035","name_fr": "Hamadia","wilaya_id": "14","name_ar": "الحمادية","latitude": "35.4590994","longitude": "1.8727812" },
{"id": "480","post_code": "14036","name_fr": "Chehaima","wilaya_id": "14","name_ar": "شحيمة","latitude": "34.8994661","longitude": "1.3026336" },
{"id": "481","post_code": "14037","name_fr": "Takhemaret","wilaya_id": "14","name_ar": "تاخمرت","latitude": "35.1089989","longitude": "0.6859898" },
{"id": "482","post_code": "14038","name_fr": "Sidi Abderrahmane","wilaya_id": "14","name_ar": "سيدي عبدالرحمان","latitude": "34.8000999","longitude": "1.1290685" },
{"id": "483","post_code": "14039","name_fr": "Serghine","wilaya_id": "14","name_ar": "سرغين","latitude": "35.2533643","longitude": "2.485328" },
{"id": "484","post_code": "14040","name_fr": "Bougara","wilaya_id": "14","name_ar": "بوقرة","latitude": "35.5550777","longitude": "1.9658658" },
{"id": "485","post_code": "14041","name_fr": "Faidja","wilaya_id": "14","name_ar": "الفايجة","latitude": "34.9730974","longitude": "1.7644284" },
{"id": "486","post_code": "14042","name_fr": "Tidda","wilaya_id": "14","name_ar": "تيدة","latitude": "35.5820424","longitude": "1.2684336" },
{"id": "487","post_code": "15001","name_fr": "Tizi Ouzou","wilaya_id": "15","name_ar": "تيزي وزو","latitude": "36.713548","longitude": "4.0473075" },
{"id": "488","post_code": "15002","name_fr": "Ain El Hammam","wilaya_id": "15","name_ar": "عين الحمام","latitude": "36.5698193","longitude": "4.3120324" },
{"id": "489","post_code": "15003","name_fr": "Akbil","wilaya_id": "15","name_ar": "أقبيل","latitude": "36.5232595","longitude": "4.3035171" },
{"id": "490","post_code": "15004","name_fr": "Freha","wilaya_id": "15","name_ar": "فريحة","latitude": "36.7568882","longitude": "4.316034" },
{"id": "491","post_code": "15005","name_fr": "Souamaa","wilaya_id": "15","name_ar": "صوامع","latitude": "36.6413443","longitude": "4.3409172" },
{"id": "492","post_code": "15006","name_fr": "Mechtrass","wilaya_id": "15","name_ar": "مشطراس","latitude": "36.544789","longitude": "4.0050065" },
{"id": "493","post_code": "15007","name_fr": "Irdjen","wilaya_id": "15","name_ar": "إرجن","latitude": "36.6609054","longitude": "4.1516102" },
{"id": "494","post_code": "15008","name_fr": "Timizart","wilaya_id": "15","name_ar": "تيميزارت","latitude": "36.7940916","longitude": "4.2449425" },
{"id": "495","post_code": "15009","name_fr": "Makouda","wilaya_id": "15","name_ar": "ماكودة","latitude": "36.7914525","longitude": "4.0633201" },
{"id": "496","post_code": "15010","name_fr": "Draa El Mizan","wilaya_id": "15","name_ar": "ذراع الميزان","latitude": "36.53572","longitude": "3.8364355" },
{"id": "497","post_code": "15011","name_fr": "Tizi Ghenif","wilaya_id": "15","name_ar": "تيزي غنيف","latitude": "36.5883144","longitude": "3.7737151" },
{"id": "498","post_code": "15012","name_fr": "Bounouh","wilaya_id": "15","name_ar": "بونوح","latitude": "36.4993994","longitude": "3.9363984" },
{"id": "499","post_code": "15013","name_fr": "Ait Chaffaa","wilaya_id": "15","name_ar": "آيت شفعة","latitude": "36.8190918","longitude": "4.5324356" },
{"id": "500","post_code": "15014","name_fr": "Frikat","wilaya_id": "15","name_ar": "فريقات","latitude": "36.5115836","longitude": "3.8850731" },
{"id": "501","post_code": "15015","name_fr": "Beni Aissi","wilaya_id": "15","name_ar": "بني عيسي","latitude": "36.6636279","longitude": "4.0848789" },
{"id": "502","post_code": "15016","name_fr": "Beni Zmenzer","wilaya_id": "15","name_ar": "أيت زمنزر","latitude": "36.6330711","longitude": "4.0408294" },
{"id": "503","post_code": "15017","name_fr": "Iferhounene","wilaya_id": "15","name_ar": "إيفرحونن","latitude": "36.5335839","longitude": "4.3706728" },
{"id": "504","post_code": "15018","name_fr": "Azazga","wilaya_id": "15","name_ar": "عزازقة","latitude": "36.7453947","longitude": "4.3714004" },
{"id": "505","post_code": "15019","name_fr": "Iloula Oumalou","wilaya_id": "15","name_ar": "إيلولة أمالو","latitude": "36.5808032","longitude": "4.4427848" },
{"id": "506","post_code": "15020","name_fr": "Yakouren","wilaya_id": "15","name_ar": "اعكورن","latitude": "36.7345765","longitude": "4.4389827" },
{"id": "507","post_code": "15021","name_fr": "Larba Nait Irathen","wilaya_id": "15","name_ar": "الأربعاء نايت إيراثن","latitude": "36.6388682","longitude": "4.2031576" },
{"id": "508","post_code": "15022","name_fr": "Tizi Rached","wilaya_id": "15","name_ar": "تيزي راشد","latitude": "36.678519","longitude": "4.2080342" },
{"id": "509","post_code": "15023","name_fr": "Zekri","wilaya_id": "15","name_ar": "زكري","latitude": "36.7823556","longitude": "4.5893415" },
{"id": "510","post_code": "15024","name_fr": "Ouaguenoun","wilaya_id": "15","name_ar": "واقنون","latitude": "36.7701747","longitude": "4.1750149" },
{"id": "511","post_code": "15025","name_fr": "Ain Zaouia","wilaya_id": "15","name_ar": "عين الزاوية","latitude": "36.5531825","longitude": "3.8954068" },
{"id": "512","post_code": "15026","name_fr": "Mkira","wilaya_id": "15","name_ar": "مكيرة","latitude": "36.6253113","longitude": "3.7927185" },
{"id": "513","post_code": "15027","name_fr": "Ait Yahia","wilaya_id": "15","name_ar": "أيت يحي","latitude": "36.5785422","longitude": "4.3270219" },
{"id": "514","post_code": "15028","name_fr": "Ait Mahmoud","wilaya_id": "15","name_ar": "أيت محمود","latitude": "36.6085989","longitude": "4.1124716" },
{"id": "515","post_code": "15029","name_fr": "Maatka","wilaya_id": "15","name_ar": "المعاتقة","latitude": "36.6047939","longitude": "3.9843693" },
{"id": "516","post_code": "15030","name_fr": "Ait Boumehdi","wilaya_id": "15","name_ar": "آيت بومھدى","latitude": "36.5018565","longitude": "4.2000911" },
{"id": "517","post_code": "15031","name_fr": "Abi Youcef","wilaya_id": "15","name_ar": "أبي يوسف","latitude": "36.5370612","longitude": "4.3445363" },
{"id": "518","post_code": "15032","name_fr": "Beni Douala","wilaya_id": "15","name_ar": "بني دوالة","latitude": "36.6208712","longitude": "4.0817582" },
{"id": "519","post_code": "15033","name_fr": "Illilten","wilaya_id": "15","name_ar": "إليلتن","latitude": "36.515124","longitude": "4.3942672" },
{"id": "520","post_code": "15034","name_fr": "Bouzguen","wilaya_id": "15","name_ar": "بوزقن","latitude": "36.617695","longitude": "4.4767763" },
{"id": "521","post_code": "15035","name_fr": "Ait Aggouacha","wilaya_id": "15","name_ar": "أيت أقواشة","latitude": "36.6171581","longitude": "4.2327233" },
{"id": "522","post_code": "15036","name_fr": "Ouadhia","wilaya_id": "15","name_ar": "واضية","latitude": "36.5559997","longitude": "4.0882933" },
{"id": "523","post_code": "15037","name_fr": "Azzefoun","wilaya_id": "15","name_ar": "أزفون","latitude": "36.8889179","longitude": "4.4221618" },
{"id": "524","post_code": "15038","name_fr": "Tigzirt","wilaya_id": "15","name_ar": "تقزيرت","latitude": "36.8919195","longitude": "4.129222" },
{"id": "525","post_code": "15039","name_fr": "Ait Aissa Mimoun","wilaya_id": "15","name_ar": "آيت عيسى ميمون","latitude": "36.750937","longitude": "4.1303814" },
{"id": "526","post_code": "15040","name_fr": "Boghni","wilaya_id": "15","name_ar": "بوغني","latitude": "36.5329303","longitude": "3.9611136" },
{"id": "527","post_code": "15041","name_fr": "Ifigha","wilaya_id": "15","name_ar": "ايفيغاء","latitude": "36.6708971","longitude": "4.4098582" },
{"id": "528","post_code": "15042","name_fr": "Ait Oumalou","wilaya_id": "15","name_ar": "آيت أومالو","latitude": "36.6441787","longitude": "4.2187115" },
{"id": "529","post_code": "15043","name_fr": "Tirmitine","wilaya_id": "15","name_ar": "ترمتين","latitude": "36.6754312","longitude": "3.9587091" },
{"id": "530","post_code": "15044","name_fr": "Akerrou","wilaya_id": "15","name_ar": "أقرو","latitude": "36.8186675","longitude": "4.445355" },
{"id": "531","post_code": "15045","name_fr": "Yatafen","wilaya_id": "15","name_ar": "يطافن","latitude": "36.5288794","longitude": "4.280915" },
{"id": "532","post_code": "15046","name_fr": "Beni Ziki","wilaya_id": "15","name_ar": "بنى زيكى","latitude": "36.5640208","longitude": "4.5050469" },
{"id": "533","post_code": "15047","name_fr": "Draa Ben Khedda","wilaya_id": "15","name_ar": "ذراع بن خدة","latitude": "36.7292574","longitude": "3.9669368" },
{"id": "534","post_code": "15048","name_fr": "Ouacif","wilaya_id": "15","name_ar": "واسيف","latitude": "36.5242402","longitude": "4.204923" },
{"id": "535","post_code": "15049","name_fr": "Idjeur","wilaya_id": "15","name_ar": "آجر","latitude": "36.666103","longitude": "4.5204682" },
{"id": "536","post_code": "15050","name_fr": "Mekla","wilaya_id": "15","name_ar": "مقلع","latitude": "36.6871278","longitude": "4.2669219" },
{"id": "537","post_code": "15051","name_fr": "Tizi Nthlata","wilaya_id": "15","name_ar": "تيزي نثلاثة","latitude": "36.575496","longitude": "4.0372875" },
{"id": "538","post_code": "15052","name_fr": "Beni Yenni","wilaya_id": "15","name_ar": "بني يني","latitude": "36.5830143","longitude": "4.1954999" },
{"id": "539","post_code": "15053","name_fr": "Aghrib","wilaya_id": "15","name_ar": "أغريب","latitude": "36.8094545","longitude": "4.3180155" },
{"id": "540","post_code": "15054","name_fr": "Iflissen","wilaya_id": "15","name_ar": "إفليسن","latitude": "36.8634408","longitude": "4.2202745" },
{"id": "541","post_code": "15055","name_fr": "Boudjima","wilaya_id": "15","name_ar": "بوجيمة","latitude": "36.8146237","longitude": "4.1597212" },
{"id": "542","post_code": "15056","name_fr": "Ait Yahia Moussa","wilaya_id": "15","name_ar": "أيت يحي موسى","latitude": "36.658795","longitude": "3.8874758" },
{"id": "543","post_code": "15057","name_fr": "Souk El Thenine","wilaya_id": "15","name_ar": "سوق الإثنين","latitude": "36.5944402","longitude": "4.0085708" },
{"id": "544","post_code": "15058","name_fr": "Ait Khelil","wilaya_id": "15","name_ar": "أيت خليلي","latitude": "36.6580714","longitude": "4.3074271" },
{"id": "545","post_code": "15059","name_fr": "Sidi Naamane","wilaya_id": "15","name_ar": "سيدي نعمان","latitude": "36.7586878","longitude": "3.9814787" },
{"id": "546","post_code": "15060","name_fr": "Iboudraren","wilaya_id": "15","name_ar": "أبودرارن","latitude": "36.5023972","longitude": "4.2496119" },
{"id": "547","post_code": "15061","name_fr": "Agouni Gueghrane","wilaya_id": "15","name_ar": "آقنى قغران","latitude": "36.5152001","longitude": "4.1153852" },
{"id": "548","post_code": "15062","name_fr": "Mizrana","wilaya_id": "15","name_ar": "مزرانة","latitude": "36.845721","longitude": "4.0964502" },
{"id": "549","post_code": "15063","name_fr": "Imsouhal","wilaya_id": "15","name_ar": "إمسوحال","latitude": "36.569262","longitude": "4.38797" },
{"id": "550","post_code": "15064","name_fr": "Tadmait","wilaya_id": "15","name_ar": "تادمايت","latitude": "36.7432504","longitude": "3.9010427" },
{"id": "551","post_code": "15065","name_fr": "Ait Bouadou","wilaya_id": "15","name_ar": "أيت بوعدو","latitude": "36.5080725","longitude": "4.0582791" },
{"id": "552","post_code": "15066","name_fr": "Assi Youcef","wilaya_id": "15","name_ar": "أسي يوسف","latitude": "36.5066311","longitude": "4.0137734" },
{"id": "553","post_code": "15067","name_fr": "Ait Toudert","wilaya_id": "15","name_ar": "أيت تودرت","latitude": "36.507295","longitude": "4.1796797" },
{"id": "554","post_code": "16001","name_fr": "Alger Centre","wilaya_id": "16","name_ar": "الجزائر الوسطى","latitude": "36.7712246","longitude": "3.0612244" },
{"id": "555","post_code": "16002","name_fr": "Sidi Mhamed","wilaya_id": "16","name_ar": "سيدي امحمد","latitude": "36.7616535","longitude": "3.056515" },
{"id": "556","post_code": "16003","name_fr": "El Madania","wilaya_id": "16","name_ar": "المدنية","latitude": "36.7419724","longitude": "3.0666584" },
{"id": "557","post_code": "16004","name_fr": "Belouizdad","wilaya_id": "16","name_ar": "بلوزداد","latitude": "36.7522517","longitude": "3.0673804" },
{"id": "558","post_code": "16005","name_fr": "Bab El Oued","wilaya_id": "16","name_ar": "باب الواد","latitude": "36.7943835","longitude": "3.0523634" },
{"id": "559","post_code": "16006","name_fr": "Bologhine","wilaya_id": "16","name_ar": "بولوغين","latitude": "36.8021936","longitude": "3.0362363" },
{"id": "560","post_code": "16007","name_fr": "Casbah","wilaya_id": "16","name_ar": "القصبة","latitude": "36.7848925","longitude": "3.0611962" },
{"id": "561","post_code": "16008","name_fr": "Oued Koriche","wilaya_id": "16","name_ar": "وادي قريش","latitude": "36.7815996","longitude": "3.0441048" },
{"id": "562","post_code": "16009","name_fr": "Bir Mourad Rais","wilaya_id": "16","name_ar": "بير مراد رايس","latitude": "36.7323545","longitude": "3.0497609" },
{"id": "563","post_code": "16010","name_fr": "El Biar","wilaya_id": "16","name_ar": "الآبيار","latitude": "36.7694847","longitude": "3.0309897" },
{"id": "564","post_code": "16011","name_fr": "Bouzareah","wilaya_id": "16","name_ar": "بوزريعة","latitude": "36.7904362","longitude": "3.0173207" },
{"id": "565","post_code": "16012","name_fr": "Birkhadem","wilaya_id": "16","name_ar": "بئر خادم","latitude": "36.7160675","longitude": "3.0496695" },
{"id": "566","post_code": "16013","name_fr": "El Harrach","wilaya_id": "16","name_ar": "الحراش","latitude": "36.7209669","longitude": "3.1376625" },
{"id": "567","post_code": "16014","name_fr": "Baraki","wilaya_id": "16","name_ar": "براقي","latitude": "36.6685704","longitude": "3.1025581" },
{"id": "568","post_code": "16015","name_fr": "Oued Smar","wilaya_id": "16","name_ar": "وادي سمار","latitude": "36.7071277","longitude": "3.1650558" },
{"id": "569","post_code": "16016","name_fr": "Bourouba","wilaya_id": "16","name_ar": "بوروبة","latitude": "36.7138317","longitude": "3.1125625" },
{"id": "570","post_code": "16017","name_fr": "Hussein Dey","wilaya_id": "16","name_ar": "حسين داي","latitude": "36.7406167","longitude": "3.0961917" },
{"id": "571","post_code": "16018","name_fr": "Kouba","wilaya_id": "16","name_ar": "القبة","latitude": "36.7322125","longitude": "3.0844945" },
{"id": "572","post_code": "16019","name_fr": "Bachedjerah","wilaya_id": "16","name_ar": "باش جراح","latitude": "36.7244831","longitude": "3.1167415" },
{"id": "573","post_code": "16020","name_fr": "Dar El Beida","wilaya_id": "16","name_ar": "الدار البيضاء","latitude": "36.7184756","longitude": "3.20987" },
{"id": "574","post_code": "16021","name_fr": "Bab Azzouar","wilaya_id": "16","name_ar": "باب الزوار","latitude": "36.7220182","longitude": "3.1856806" },
{"id": "575","post_code": "16022","name_fr": "Ben Aknoun","wilaya_id": "16","name_ar": "بن عكنون","latitude": "36.7597697","longitude": "3.0138343" },
{"id": "576","post_code": "16023","name_fr": "Dely Ibrahim","wilaya_id": "16","name_ar": "دالي ابراهيم","latitude": "36.7603217","longitude": "2.9880036" },
{"id": "577","post_code": "16024","name_fr": "El Hammamet","wilaya_id": "16","name_ar": "الحمامات","latitude": "36.8120003","longitude": "2.9737821" },
{"id": "578","post_code": "16025","name_fr": "Rais Hamidou","wilaya_id": "16","name_ar": "الرايس حميدو","latitude": "36.8174562","longitude": "3.0114423" },
{"id": "579","post_code": "16026","name_fr": "Djasr Kasentina","wilaya_id": "16","name_ar": "جسر قسنطينة","latitude": "36.6972546","longitude": "3.0747191" },
{"id": "580","post_code": "16027","name_fr": "El Mouradia","wilaya_id": "16","name_ar": "المرادية","latitude": "36.7535686","longitude": "3.0425182" },
{"id": "581","post_code": "16028","name_fr": "Hydra","wilaya_id": "16","name_ar": "حيدرة","latitude": "36.7449116","longitude": "3.0288743" },
{"id": "582","post_code": "16029","name_fr": "Mohammadia","wilaya_id": "16","name_ar": "المحمدية","latitude": "36.7295732","longitude": "3.1571563" },
{"id": "583","post_code": "16030","name_fr": "Bordj El Kiffan","wilaya_id": "16","name_ar": "برج الكيفان","latitude": "36.7611607","longitude": "3.2322593" },
{"id": "584","post_code": "16031","name_fr": "El Magharia","wilaya_id": "16","name_ar": "المقرية","latitude": "36.7304225","longitude": "3.1100238" },
{"id": "585","post_code": "16032","name_fr": "Beni Messous","wilaya_id": "16","name_ar": "بني مسوس","latitude": "36.7794364","longitude": "2.9773961" },
{"id": "586","post_code": "16033","name_fr": "Les Eucalyptus","wilaya_id": "16","name_ar": "الكليتوس","latitude": "36.6637916","longitude": "3.1507315" },
{"id": "587","post_code": "16034","name_fr": "Birtouta","wilaya_id": "16","name_ar": "بئر توتة","latitude": "36.642948","longitude": "2.9929093" },
{"id": "588","post_code": "16035","name_fr": "Tassala El Merdja","wilaya_id": "16","name_ar": "تسالة المرجة","latitude": "36.630713","longitude": "2.9456312" },
{"id": "589","post_code": "16036","name_fr": "Ouled Chebel","wilaya_id": "16","name_ar": "أولاد الشبل","latitude": "36.592387","longitude": "2.9897662" },
{"id": "590","post_code": "16037","name_fr": "Sidi Moussa","wilaya_id": "16","name_ar": "سيدي موسى","latitude": "36.6165787","longitude": "3.1032114" },
{"id": "591","post_code": "16038","name_fr": "Ain Taya","wilaya_id": "16","name_ar": "عين طاية","latitude": "36.792946","longitude": "3.2882452" },
{"id": "592","post_code": "16039","name_fr": "Bordj El Bahri","wilaya_id": "16","name_ar": "برج البحري","latitude": "36.7873608","longitude": "3.2376833" },
{"id": "593","post_code": "16040","name_fr": "El Marsa","wilaya_id": "16","name_ar": "المرسى","latitude": "36.8059083","longitude": "3.2372787" },
{"id": "594","post_code": "16041","name_fr": "Haraoua","wilaya_id": "16","name_ar": "هراوة","latitude": "36.7716374","longitude": "3.3135483" },
{"id": "595","post_code": "16042","name_fr": "Rouiba","wilaya_id": "16","name_ar": "رويبة","latitude": "36.7358928","longitude": "3.2779879" },
{"id": "596","post_code": "16043","name_fr": "Reghaia","wilaya_id": "16","name_ar": "الرغاية","latitude": "36.7386643","longitude": "3.34255" },
{"id": "597","post_code": "16044","name_fr": "Ain Benian","wilaya_id": "16","name_ar": "عين بنيان","latitude": "36.800402","longitude": "2.9181427" },
{"id": "598","post_code": "16045","name_fr": "Staoueli","wilaya_id": "16","name_ar": "سطاوالي","latitude": "36.7532487","longitude": "2.8881285" },
{"id": "599","post_code": "16046","name_fr": "Zeralda","wilaya_id": "16","name_ar": "زرالدة","latitude": "36.7137456","longitude": "2.8449957" },
{"id": "600","post_code": "16047","name_fr": "Mahelma","wilaya_id": "16","name_ar": "محالمة","latitude": "36.6870892","longitude": "2.8747279" },
{"id": "601","post_code": "16048","name_fr": "Rahmania","wilaya_id": "16","name_ar": "رحمانية","latitude": "36.6812335","longitude": "2.9064564" },
{"id": "602","post_code": "16049","name_fr": "Souidania","wilaya_id": "16","name_ar": "سويدانية","latitude": "36.7085523","longitude": "2.9119117" },
{"id": "603","post_code": "16050","name_fr": "Cheraga","wilaya_id": "16","name_ar": "شراقة","latitude": "36.7668544","longitude": "2.9602011" },
{"id": "604","post_code": "16051","name_fr": "Ouled Fayet","wilaya_id": "16","name_ar": "أولاد فايت","latitude": "36.7340018","longitude": "2.9339798" },
{"id": "605","post_code": "16052","name_fr": "El Achour","wilaya_id": "16","name_ar": "العاشور","latitude": "36.7381334","longitude": "2.9868256" },
{"id": "606","post_code": "16053","name_fr": "Draria","wilaya_id": "16","name_ar": "درارية","latitude": "36.720057","longitude": "2.9951112" },
{"id": "607","post_code": "16054","name_fr": "Douera","wilaya_id": "16","name_ar": "دويرة","latitude": "36.6722125","longitude": "2.943728" },
{"id": "608","post_code": "16055","name_fr": "Baba Hassen","wilaya_id": "16","name_ar": "بابا حسن","latitude": "36.694293","longitude": "2.9733179" },
{"id": "609","post_code": "16056","name_fr": "Khracia","wilaya_id": "16","name_ar": "خرايسية","latitude": "36.6679107","longitude": "2.9982768" },
{"id": "610","post_code": "16057","name_fr": "Saoula","wilaya_id": "16","name_ar": "السحاولة","latitude": "36.7032467","longitude": "3.0242644" },
{"id": "611","post_code": "17001","name_fr": "Djelfa","wilaya_id": "17","name_ar": "الجلفة","latitude": "34.6703956","longitude": "3.2503761" },
{"id": "612","post_code": "17002","name_fr": "Moudjebara","wilaya_id": "17","name_ar": "مجبرة","latitude": "34.5029037","longitude": "3.4718853" },
{"id": "613","post_code": "17003","name_fr": "El Guedid","wilaya_id": "17","name_ar": "القديد","latitude": "34.6484715","longitude": "2.6183183" },
{"id": "614","post_code": "17004","name_fr": "Hassi Bahbah","wilaya_id": "17","name_ar": "حاسي بحبح","latitude": "35.0762544","longitude": "3.0267229" },
{"id": "615","post_code": "17005","name_fr": "Ain Maabed","wilaya_id": "17","name_ar": "عين معبد","latitude": "34.8044885","longitude": "3.127783" },
{"id": "616","post_code": "17006","name_fr": "Sed Rahal","wilaya_id": "17","name_ar": "سد رحال","latitude": "33.9490606","longitude": "3.2216789" },
{"id": "617","post_code": "17007","name_fr": "Feidh El Botma","wilaya_id": "17","name_ar": "فيض البطمة","latitude": "34.5291974","longitude": "3.7803975" },
{"id": "618","post_code": "17008","name_fr": "Birine","wilaya_id": "17","name_ar": "البيرين","latitude": "35.6356279","longitude": "3.2240322" },
{"id": "619","post_code": "17009","name_fr": "Bouira Lahdeb","wilaya_id": "17","name_ar": "بويرة الأحداب","latitude": "35.2452606","longitude": "3.1427611" },
{"id": "620","post_code": "17010","name_fr": "Zaccar","wilaya_id": "17","name_ar": "زكار","latitude": "34.4306072","longitude": "3.3279265" },
{"id": "621","post_code": "17011","name_fr": "El Khemis","wilaya_id": "17","name_ar": "الخميس","latitude": "35.2878421","longitude": "2.5951345" },
{"id": "622","post_code": "17012","name_fr": "Sidi Baizid","wilaya_id": "17","name_ar": "سيدي بايزيد","latitude": "34.9739503","longitude": "3.3945003" },
{"id": "623","post_code": "17013","name_fr": "M'Liliha","wilaya_id": "17","name_ar": "المليليحة","latitude": "34.7546022","longitude": "3.4821423" },
{"id": "624","post_code": "17014","name_fr": "El Idrissia","wilaya_id": "17","name_ar": "الإدريسية","latitude": "34.4531021","longitude": "2.5307193" },
{"id": "625","post_code": "17015","name_fr": "Douis","wilaya_id": "17","name_ar": "الدويس","latitude": "34.3673706","longitude": "2.700196" },
{"id": "626","post_code": "17016","name_fr": "Hassi El Euch","wilaya_id": "17","name_ar": "حاسي العش","latitude": "35.1530303","longitude": "3.2493122" },
{"id": "627","post_code": "17017","name_fr": "Messaad","wilaya_id": "17","name_ar": "مسعد","latitude": "34.1540623","longitude": "3.4922857" },
{"id": "628","post_code": "17018","name_fr": "Guettara","wilaya_id": "17","name_ar": "قتارة","latitude": "33.1612283","longitude": "4.6842864" },
{"id": "629","post_code": "17019","name_fr": "Sidi Ladjel","wilaya_id": "17","name_ar": "سيدي لعجال","latitude": "35.4449333","longitude": "2.5213322" },
{"id": "630","post_code": "17020","name_fr": "Had Sahary","wilaya_id": "17","name_ar": "حد الصحاري","latitude": "35.3522853","longitude": "3.3660932" },
{"id": "631","post_code": "17021","name_fr": "Guernini","wilaya_id": "17","name_ar": "القرنيني","latitude": "35.1999671","longitude": "2.6820394" },
{"id": "632","post_code": "17022","name_fr": "Selmana","wilaya_id": "17","name_ar": "سلمانة","latitude": "33.7975324","longitude": "3.8152519" },
{"id": "633","post_code": "17023","name_fr": "Ain Chouhada","wilaya_id": "17","name_ar": "عين الشهداء","latitude": "34.2419268","longitude": "2.5207159" },
{"id": "634","post_code": "17024","name_fr": "Oum Laadham","wilaya_id": "17","name_ar": "ام العظام","latitude": "33.7193728","longitude": "4.5288362" },
{"id": "635","post_code": "17025","name_fr": "Dar Chouikh","wilaya_id": "17","name_ar": "دار الشيوخ","latitude": "34.6539822","longitude": "3.2845556" },
{"id": "636","post_code": "17026","name_fr": "Charef","wilaya_id": "17","name_ar": "الشارف","latitude": "34.6194743","longitude": "2.8076182" },
{"id": "637","post_code": "17027","name_fr": "Beni Yacoub","wilaya_id": "17","name_ar": "بن يعقوب","latitude": "34.4662832","longitude": "2.7852362" },
{"id": "638","post_code": "17028","name_fr": "Zaafrane","wilaya_id": "17","name_ar": "الزعفران","latitude": "34.8511326","longitude": "2.85511" },
{"id": "639","post_code": "17029","name_fr": "Deldoul","wilaya_id": "54","name_ar": "دلدول","latitude": "28.8029275","longitude": "-0.1044529" },
{"id": "640","post_code": "17030","name_fr": "Ain El Ibel","wilaya_id": "17","name_ar": "عين الابل","latitude": "34.3578","longitude": "3.2249905" },
{"id": "641","post_code": "17031","name_fr": "Ain Oussera","wilaya_id": "17","name_ar": "عين وسارة","latitude": "35.4487155","longitude": "2.9073552" },
{"id": "642","post_code": "17032","name_fr": "Benhar","wilaya_id": "17","name_ar": "بنهار","latitude": "35.4869379","longitude": "3.0120358" },
{"id": "643","post_code": "17033","name_fr": "Hassi Fedoul","wilaya_id": "17","name_ar": "حاسي فدول","latitude": "35.4378054","longitude": "2.2115104" },
{"id": "644","post_code": "17034","name_fr": "Amourah","wilaya_id": "17","name_ar": "عمورة","latitude": "34.2996511","longitude": "3.9330183" },
{"id": "645","post_code": "17035","name_fr": "Ain Fekka","wilaya_id": "17","name_ar": "عين افقة","latitude": "35.4271843","longitude": "3.5815121" },
{"id": "646","post_code": "17036","name_fr": "Tadmit","wilaya_id": "17","name_ar": "تعضميت","latitude": "34.2859718","longitude": "2.9875783" },
{"id": "647","post_code": "18001","name_fr": "Jijel","wilaya_id": "18","name_ar": "جيجل","latitude": "36.8210144","longitude": "5.7634126" },
{"id": "648","post_code": "18002","name_fr": "Erraguene","wilaya_id": "18","name_ar": "إراڨن","latitude": "36.5872968","longitude": "5.5832274" },
{"id": "649","post_code": "18003","name_fr": "El Aouana","wilaya_id": "18","name_ar": "العوانة","latitude": "36.7726109","longitude": "5.6078623" },
{"id": "650","post_code": "18004","name_fr": "Ziamma Mansouriah","wilaya_id": "18","name_ar": "زيامة منصورية","latitude": "36.6611639","longitude": "5.438632" },
{"id": "651","post_code": "18005","name_fr": "Taher","wilaya_id": "18","name_ar": "الطاهير","latitude": "36.7700786","longitude": "5.8978148" },
{"id": "652","post_code": "18006","name_fr": "Emir Abdelkader","wilaya_id": "18","name_ar": "الامير عبد القادر","latitude": "36.7527844","longitude": "5.8432653" },
{"id": "653","post_code": "18007","name_fr": "Chekfa","wilaya_id": "18","name_ar": "الشقفة","latitude": "36.7705677","longitude": "5.9621633" },
{"id": "654","post_code": "18008","name_fr": "Chahna","wilaya_id": "18","name_ar": "الشحنة","latitude": "36.6726654","longitude": "5.9531617" },
{"id": "655","post_code": "18009","name_fr": "El Milia","wilaya_id": "18","name_ar": "الميلية","latitude": "36.7531205","longitude": "6.2676726" },
{"id": "656","post_code": "18010","name_fr": "Sidi Maarouf","wilaya_id": "18","name_ar": "سيدي معروف","latitude": "36.6400362","longitude": "6.2742595" },
{"id": "657","post_code": "18011","name_fr": "Settara","wilaya_id": "18","name_ar": "السطارة","latitude": "36.7197322","longitude": "6.3358373" },
{"id": "658","post_code": "18012","name_fr": "El Ancer","wilaya_id": "18","name_ar": "العنصر","latitude": "36.8000519","longitude": "6.1567041" },
{"id": "659","post_code": "18013","name_fr": "Sidi Abdelaziz","wilaya_id": "18","name_ar": "سيدي عبد العزيز","latitude": "36.8572639","longitude": "6.0595743" },
{"id": "660","post_code": "18014","name_fr": "Kaous","wilaya_id": "18","name_ar": "قاوس","latitude": "36.771323","longitude": "5.8113221" },
{"id": "661","post_code": "18015","name_fr": "Ghebala","wilaya_id": "18","name_ar": "غبالة","latitude": "36.6282973","longitude": "6.3881848" },
{"id": "662","post_code": "18016","name_fr": "Bouraoui Belhadef","wilaya_id": "18","name_ar": "بوراوي بلهادف","latitude": "36.7003585","longitude": "6.1019968" },
{"id": "663","post_code": "18017","name_fr": "Djmila","wilaya_id": "18","name_ar": "جيملة","latitude": "36.8010981","longitude": "5.7516569" },
{"id": "664","post_code": "18018","name_fr": "Selma Benziada","wilaya_id": "18","name_ar": "سلمى بن زيادة","latitude": "36.6168064","longitude": "5.657364" },
{"id": "665","post_code": "18019","name_fr": "Boussif Ouled Askeur","wilaya_id": "18","name_ar": "أولاد عسكر","latitude": "36.6456002","longitude": "6.0176745" },
{"id": "666","post_code": "18020","name_fr": "El Kennar Nouchfi","wilaya_id": "18","name_ar": "القنار","latitude": "36.8271452","longitude": "5.9707568" },
{"id": "667","post_code": "18021","name_fr": "Ouled Yahia Khadrouch","wilaya_id": "18","name_ar": "اولاد يحيى","latitude": "36.7111079","longitude": "6.2005962" },
{"id": "668","post_code": "18022","name_fr": "Boudria Beni Yadjis","wilaya_id": "18","name_ar": "بودريعة بن ياجيس","latitude": "36.5989152","longitude": "5.8085557" },
{"id": "669","post_code": "18023","name_fr": "Kemir Oued Adjoul","wilaya_id": "18","name_ar": "بني بلعيد","latitude": "36.8823507","longitude": "6.1341868" },
{"id": "670","post_code": "18024","name_fr": "Texena","wilaya_id": "18","name_ar": "تاكسنة","latitude": "36.659857","longitude": "5.7887042" },
{"id": "671","post_code": "18025","name_fr": "Djemaa Beni Habibi","wilaya_id": "18","name_ar": "الجمعة بني حبيبي","latitude": "36.8094057","longitude": "6.1258382" },